{
  "results": [
    {
      "attendee_count": 25,
      "capacity": "30",
      "id": "422",
      "id_obfuscated": "wrsd",
      "latitude": "36.188980",
      "longitude": "-85.451843",
      "name": "Introductory Meeting",
      "start_day": "2015-07-29",
      "start_dt": "2015-07-29 19:00:00",
      "start_time": "19:00:00",
      "venue_zip": "38506",
      "bernieID": 1601
    },
    {
      "attendee_count": 150,
      "capacity": "150",
      "id": "678",
      "id_obfuscated": "wbr",
      "latitude": "33.754200",
      "longitude": "-84.375954",
      "name": "O4W Feel the Bern",
      "start_day": "2015-07-29",
      "start_dt": "2015-07-29 19:00:00",
      "start_time": "19:00:00",
      "venue_zip": "30312",
      "bernieID": 1602
    },
    {
      "attendee_count": 14,
      "capacity": "0",
      "id": "1190",
      "id_obfuscated": "4jv4t",
      "latitude": "35.931778",
      "longitude": "-82.252899",
      "name": "Burnsvillians for Bernie meeting.  Come discuss, listen and support Bernie Sanders and what he stands for.",
      "start_day": "2015-07-29",
      "start_dt": "2015-07-29 19:00:00",
      "start_time": "19:00:00",
      "venue_zip": "28714",
      "bernieID": 1603
    },
    {
      "attendee_count": 7,
      "capacity": "50",
      "id": "3494",
      "id_obfuscated": "4vxkf",
      "latitude": "41.239948",
      "longitude": "-85.857910",
      "name": "Warsaw for Bernie Sanders",
      "start_day": "2015-07-29",
      "start_dt": "2015-07-29 19:00:00",
      "start_time": "19:00:00",
      "venue_zip": "46580",
      "bernieID": 1604
    },
    {
      "attendee_count": 68,
      "capacity": "0",
      "id": "423",
      "id_obfuscated": "wrs2",
      "latitude": "28.388725",
      "longitude": "-81.477325",
      "name": "Orlando People for Bernie Sanders",
      "start_day": "2015-07-29",
      "start_dt": "2015-07-29 19:00:00",
      "start_time": "19:00:00",
      "venue_zip": "32821",
      "bernieID": 1605
    },
    {
      "attendee_count": 8,
      "capacity": "10",
      "id": "1447",
      "id_obfuscated": "4jv22",
      "latitude": "41.919426",
      "longitude": "-73.070503",
      "name": "Feel the Bern organizing meeting",
      "start_day": "2015-07-29",
      "start_dt": "2015-07-29 19:00:00",
      "start_time": "19:00:00",
      "venue_zip": "06098",
      "bernieID": 1606
    },
    {
      "attendee_count": 45,
      "capacity": "0",
      "id": "2215",
      "id_obfuscated": "4v5xl",
      "latitude": "42.950382",
      "longitude": "-72.269051",
      "name": "Keene for Bernie",
      "start_day": "2015-07-29",
      "start_dt": "2015-07-29 19:00:00",
      "start_time": "19:00:00",
      "venue_zip": "03431",
      "bernieID": 1607
    },
    {
      "attendee_count": 2,
      "capacity": "25",
      "id": "2471",
      "id_obfuscated": "4v7qz",
      "latitude": "30.608282",
      "longitude": "-87.159355",
      "name": "Pensacola for Bernie",
      "start_day": "2015-07-29",
      "start_dt": "2015-07-29 18:00:00",
      "start_time": "18:00:00",
      "venue_zip": "32571",
      "bernieID": 1608
    },
    {
      "attendee_count": 30,
      "capacity": "30",
      "id": "2727",
      "id_obfuscated": "4v7cg",
      "latitude": "44.472683",
      "longitude": "-73.210922",
      "name": "Bern-storm in Bernie-town (aka Burlington, Vermont)",
      "start_day": "2015-07-29",
      "start_dt": "2015-07-29 19:00:00",
      "start_time": "19:00:00",
      "venue_zip": "05401",
      "bernieID": 1609
    },
    {
      "attendee_count": 2,
      "capacity": "150",
      "id": "3751",
      "id_obfuscated": "4jtvw",
      "latitude": "43.549007",
      "longitude": "-71.403694",
      "name": "Laconia-Gilford Bernie Sanders Kickoff Meeting",
      "start_day": "2015-07-29",
      "start_dt": "2015-07-29 19:00:00",
      "start_time": "19:00:00",
      "venue_zip": "03249",
      "bernieID": 1610
    },
    {
      "attendee_count": 189,
      "capacity": "450",
      "id": "424",
      "id_obfuscated": "wrsk",
      "latitude": "29.650276",
      "longitude": "-82.327484",
      "name": "Gainesville Wants Bernie July 29th Meet Up at High Dive",
      "start_day": "2015-07-29",
      "start_dt": "2015-07-29 19:00:00",
      "start_time": "19:00:00",
      "venue_zip": "32601",
      "bernieID": 1611
    },
    {
      "attendee_count": 56,
      "capacity": "60",
      "id": "1192",
      "id_obfuscated": "4jv4s",
      "latitude": "32.822411",
      "longitude": "-79.996696",
      "name": "Feel the Bernie : Charleston style",
      "start_day": "2015-07-29",
      "start_dt": "2015-07-29 19:00:00",
      "start_time": "19:00:00",
      "venue_zip": "29407",
      "bernieID": 1612
    },
    {
      "attendee_count": 11,
      "capacity": "50",
      "id": "1960",
      "id_obfuscated": "4jjgm",
      "latitude": "38.277573",
      "longitude": "-82.106483",
      "name": "Lincoln County WV for Bernie Sanders",
      "start_day": "2015-07-29",
      "start_dt": "2015-07-29 19:00:00",
      "start_time": "19:00:00",
      "venue_zip": "25523",
      "bernieID": 1613
    },
    {
      "attendee_count": 9,
      "capacity": "30",
      "id": "2472",
      "id_obfuscated": "4v7bv",
      "latitude": "39.883804",
      "longitude": "-84.190018",
      "name": "Bernie Campaign Kickoff in Vandalia",
      "start_day": "2015-07-29",
      "start_dt": "2015-07-29 19:00:00",
      "start_time": "19:00:00",
      "venue_zip": "45377",
      "bernieID": 1614
    },
    {
      "attendee_count": 13,
      "capacity": "20",
      "id": "2728",
      "id_obfuscated": "4v7c9",
      "latitude": "42.534313",
      "longitude": "-71.302200",
      "name": "Billerica for Bernie",
      "start_day": "2015-07-29",
      "start_dt": "2015-07-29 19:00:00",
      "start_time": "19:00:00",
      "venue_zip": "01862",
      "bernieID": 1615
    },
    {
      "attendee_count": 1,
      "capacity": "75",
      "id": "3752",
      "id_obfuscated": "4jtvd",
      "latitude": "42.630165",
      "longitude": "-87.841835",
      "name": "KenoshaForBernie Organizing Meeting",
      "start_day": "2015-07-29",
      "start_dt": "2015-07-29 18:00:00",
      "start_time": "18:00:00",
      "venue_zip": "53140",
      "bernieID": 1616
    },
    {
      "attendee_count": 56,
      "capacity": "75",
      "id": "425",
      "id_obfuscated": "wrsz",
      "latitude": "34.720909",
      "longitude": "-76.714096",
      "name": "Crystal Coast Citizens for Sanders",
      "start_day": "2015-07-29",
      "start_dt": "2015-07-29 19:00:00",
      "start_time": "19:00:00",
      "venue_zip": "28557",
      "bernieID": 1617
    },
    {
      "attendee_count": 20,
      "capacity": "20",
      "id": "681",
      "id_obfuscated": "wbq",
      "latitude": "33.784058",
      "longitude": "-83.722809",
      "name": "Georgia for Bernie Organizing Meeting",
      "start_day": "2015-07-29",
      "start_dt": "2015-07-29 19:00:00",
      "start_time": "19:00:00",
      "venue_zip": "30655",
      "bernieID": 1618
    },
    {
      "attendee_count": 14,
      "capacity": "50",
      "id": "937",
      "id_obfuscated": "wc3",
      "latitude": "43.095581",
      "longitude": "-96.175743",
      "name": "Bernie 2016 Support Meeting",
      "start_day": "2015-07-29",
      "start_dt": "2015-07-29 18:00:00",
      "start_time": "18:00:00",
      "venue_zip": "51250",
      "bernieID": 1619
    },
    {
      "attendee_count": 18,
      "capacity": "20",
      "id": "1449",
      "id_obfuscated": "4jv25",
      "latitude": "40.637363",
      "longitude": "-74.093109",
      "name": "Meet Bernie's Supporters",
      "start_day": "2015-07-29",
      "start_dt": "2015-07-29 19:00:00",
      "start_time": "19:00:00",
      "venue_zip": "10301",
      "bernieID": 1620
    },
    {
      "attendee_count": 44,
      "capacity": "0",
      "id": "1961",
      "id_obfuscated": "4jjgh",
      "latitude": "33.527657",
      "longitude": "-101.876465",
      "name": "BERNIE LUBBOCK!",
      "start_day": "2015-07-29",
      "start_dt": "2015-07-29 18:00:00",
      "start_time": "18:00:00",
      "venue_zip": "79423-1437",
      "bernieID": 1621
    },
    {
      "attendee_count": 25,
      "capacity": "30",
      "id": "2729",
      "id_obfuscated": "4v7c8",
      "latitude": "30.672846",
      "longitude": "-96.373520",
      "name": "Bryan-College Station for Bernie Sanders Organizing Kick-Off",
      "start_day": "2015-07-29",
      "start_dt": "2015-07-29 18:00:00",
      "start_time": "18:00:00",
      "venue_zip": "77803",
      "bernieID": 1622
    },
    {
      "attendee_count": 7,
      "capacity": "10",
      "id": "938",
      "id_obfuscated": "wcc",
      "latitude": "47.922237",
      "longitude": "-97.042336",
      "name": "Grand Forks for Bernie Organizing meeting",
      "start_day": "2015-07-29",
      "start_dt": "2015-07-29 18:00:00",
      "start_time": "18:00:00",
      "venue_zip": "58203",
      "bernieID": 1623
    },
    {
      "attendee_count": 7,
      "capacity": "10",
      "id": "1962",
      "id_obfuscated": "4jjg5",
      "latitude": "37.590488",
      "longitude": "-90.628021",
      "name": "\"Feel the Bern!\"  Bernie Sanders Organizational Meeting",
      "start_day": "2015-07-29",
      "start_dt": "2015-07-29 18:00:00",
      "start_time": "18:00:00",
      "venue_zip": "63621",
      "bernieID": 1624
    },
    {
      "attendee_count": 4,
      "capacity": "70",
      "id": "2218",
      "id_obfuscated": "4v5xc",
      "latitude": "34.041370",
      "longitude": "-86.019737",
      "name": "Etowah County Meetup for Bernie Sanders' Web Cast",
      "start_day": "2015-07-29",
      "start_dt": "2015-07-29 18:00:00",
      "start_time": "18:00:00",
      "venue_zip": "35904",
      "bernieID": 1625
    },
    {
      "attendee_count": 13,
      "capacity": "75",
      "id": "2730",
      "id_obfuscated": "4v7cf",
      "latitude": "40.655350",
      "longitude": "-74.218353",
      "name": "Union County #BernItUp",
      "start_day": "2015-07-29",
      "start_dt": "2015-07-29 19:00:00",
      "start_time": "19:00:00",
      "venue_zip": "07202",
      "bernieID": 1626
    },
    {
      "attendee_count": 36,
      "capacity": "50",
      "id": "939",
      "id_obfuscated": "wck",
      "latitude": "38.995403",
      "longitude": "-77.021927",
      "name": "Organize for Bernie - Downtown Silver Spring MD",
      "start_day": "2015-07-29",
      "start_dt": "2015-07-29 19:00:00",
      "start_time": "19:00:00",
      "venue_zip": "20910",
      "bernieID": 1627
    },
    {
      "attendee_count": 12,
      "capacity": "12",
      "id": "1707",
      "id_obfuscated": "4jv5y",
      "latitude": "40.911015",
      "longitude": "-74.289337",
      "name": "Lincoln Park Citizens For Bernie!",
      "start_day": "2015-07-29",
      "start_dt": "2015-07-29 19:00:00",
      "start_time": "19:00:00",
      "venue_zip": "07035",
      "bernieID": 1628
    },
    {
      "attendee_count": 8,
      "capacity": "10",
      "id": "2219",
      "id_obfuscated": "4v5xk",
      "latitude": "43.225067",
      "longitude": "-78.373680",
      "name": "\"FEEL THE BURN\" Bernie Sanders organizational meeting Medina/Albion/Middleport NY",
      "start_day": "2015-07-29",
      "start_dt": "2015-07-29 19:00:00",
      "start_time": "19:00:00",
      "venue_zip": "14103",
      "bernieID": 1629
    },
    {
      "attendee_count": 7,
      "capacity": "25",
      "id": "2475",
      "id_obfuscated": "4v7b4",
      "latitude": "36.651009",
      "longitude": "-81.170792",
      "name": "Organizing Meeting for Bernie Sanders in Independence, Virginia",
      "start_day": "2015-07-29",
      "start_dt": "2015-07-29 19:00:00",
      "start_time": "19:00:00",
      "venue_zip": "24348",
      "bernieID": 1630
    },
    {
      "attendee_count": 5,
      "capacity": "12",
      "id": "2731",
      "id_obfuscated": "4v7cc",
      "latitude": "42.827755",
      "longitude": "-75.541107",
      "name": "Bernie organizing event in Hamilton, New York",
      "start_day": "2015-07-29",
      "start_dt": "2015-07-29 19:00:00",
      "start_time": "19:00:00",
      "venue_zip": "13346",
      "bernieID": 1631
    },
    {
      "attendee_count": 30,
      "capacity": "30",
      "id": "684",
      "id_obfuscated": "wbp",
      "latitude": "38.874905",
      "longitude": "-77.200668",
      "name": "Organizing meeting",
      "start_day": "2015-07-29",
      "start_dt": "2015-07-29 19:00:00",
      "start_time": "19:00:00",
      "venue_zip": "22042",
      "bernieID": 1632
    },
    {
      "attendee_count": 25,
      "capacity": "25",
      "id": "2732",
      "id_obfuscated": "4v7cp",
      "latitude": "39.616627",
      "longitude": "-104.790436",
      "name": "Bernie 2016 Grassroots Organizing Meeting - Centennial/SE Aurora",
      "start_day": "2015-07-29",
      "start_dt": "2015-07-29 17:00:00",
      "start_time": "17:00:00",
      "venue_zip": "80015",
      "bernieID": 1633
    },
    {
      "attendee_count": 11,
      "capacity": "15",
      "id": "2988",
      "id_obfuscated": "4vxt5",
      "latitude": "42.297073",
      "longitude": "-83.738411",
      "name": "Bernie Sanders comes to Argo Park!",
      "start_day": "2015-07-29",
      "start_dt": "2015-07-29 19:00:00",
      "start_time": "19:00:00",
      "venue_zip": "48105",
      "bernieID": 1634
    },
    {
      "attendee_count": 16,
      "capacity": "50",
      "id": "3500",
      "id_obfuscated": "4vxkh",
      "latitude": "27.587166",
      "longitude": "-99.478401",
      "name": "Americans4Bernie In Puerto Vallarta Mexico",
      "start_day": "2015-07-29",
      "start_dt": "2015-07-29 18:00:00",
      "start_time": "18:00:00",
      "venue_zip": "78045",
      "bernieID": 1635
    },
    {
      "attendee_count": 1,
      "capacity": "0",
      "id": "429",
      "id_obfuscated": "wrs5",
      "latitude": "35.202164",
      "longitude": "-85.512192",
      "name": "Organizing for Bernie Sanders",
      "start_day": "2015-07-29",
      "start_dt": "2015-07-29 19:00:00",
      "start_time": "19:00:00",
      "venue_zip": "37397",
      "bernieID": 1636
    },
    {
      "attendee_count": 15,
      "capacity": "15",
      "id": "1965",
      "id_obfuscated": "4jjgk",
      "latitude": "39.657623",
      "longitude": "-77.705467",
      "name": "Organizing Hagerstown for Bernie 2016!",
      "start_day": "2015-07-29",
      "start_dt": "2015-07-29 19:00:00",
      "start_time": "19:00:00",
      "venue_zip": "21742",
      "bernieID": 1637
    },
    {
      "attendee_count": 16,
      "capacity": "30",
      "id": "2221",
      "id_obfuscated": "4v5xd",
      "latitude": "47.235931",
      "longitude": "-93.514954",
      "name": "Itasca County for Bernie 2016",
      "start_day": "2015-07-29",
      "start_dt": "2015-07-29 18:00:00",
      "start_time": "18:00:00",
      "venue_zip": "55744",
      "bernieID": 1638
    },
    {
      "attendee_count": 7,
      "capacity": "200",
      "id": "3501",
      "id_obfuscated": "4vxk5",
      "latitude": "42.456287",
      "longitude": "-70.954834",
      "name": "Lynn for Bernie 2016",
      "start_day": "2015-07-29",
      "start_dt": "2015-07-29 19:00:00",
      "start_time": "19:00:00",
      "venue_zip": "01905",
      "bernieID": 1639
    },
    {
      "attendee_count": 0,
      "capacity": "15",
      "id": "3757",
      "id_obfuscated": "4jtvs",
      "latitude": "41.482803",
      "longitude": "-87.984200",
      "name": "Feel the Bern Revolution!",
      "start_day": "2015-07-29",
      "start_dt": "2015-07-29 18:00:00",
      "start_time": "18:00:00",
      "venue_zip": "60451",
      "bernieID": 1640
    },
    {
      "attendee_count": 2,
      "capacity": "24",
      "id": "430",
      "id_obfuscated": "wrs3",
      "latitude": "43.876709",
      "longitude": "-73.274155",
      "name": "Bernie for President Organizing Meeting in Shoreham",
      "start_day": "2015-07-29",
      "start_dt": "2015-07-29 19:00:00",
      "start_time": "19:00:00",
      "venue_zip": "05770",
      "bernieID": 1641
    },
    {
      "attendee_count": 10,
      "capacity": "10",
      "id": "1198",
      "id_obfuscated": "4jv4q",
      "latitude": "44.948399",
      "longitude": "-93.334389",
      "name": "Bernie Sanders campaigning kickoff in St.Louis Park",
      "start_day": "2015-07-29",
      "start_dt": "2015-07-29 18:00:00",
      "start_time": "18:00:00",
      "venue_zip": "55416",
      "bernieID": 1642
    },
    {
      "attendee_count": 16,
      "capacity": "45",
      "id": "3502",
      "id_obfuscated": "4vxk7",
      "latitude": "38.345345",
      "longitude": "-81.619987",
      "name": "Kanawha Valley Bernie Sanders Skype",
      "start_day": "2015-07-29",
      "start_dt": "2015-07-29 19:00:00",
      "start_time": "19:00:00",
      "venue_zip": "25311",
      "bernieID": 1643
    },
    {
      "attendee_count": 5,
      "capacity": "20",
      "id": "3758",
      "id_obfuscated": "4jtvp",
      "latitude": "40.674782",
      "longitude": "-73.955055",
      "name": "Bern Notice (A Crown Heights organizing meeting for Sanders 2016)",
      "start_day": "2015-07-29",
      "start_dt": "2015-07-29 19:00:00",
      "start_time": "19:00:00",
      "venue_zip": "11216",
      "bernieID": 1644
    },
    {
      "attendee_count": 31,
      "capacity": "0",
      "id": "943",
      "id_obfuscated": "wch",
      "latitude": "31.141817",
      "longitude": "-81.486237",
      "name": "Feel the BERN -- Brunswick for Bernie!",
      "start_day": "2015-07-29",
      "start_dt": "2015-07-29 19:00:00",
      "start_time": "19:00:00",
      "venue_zip": "31520",
      "bernieID": 1645
    },
    {
      "attendee_count": 20,
      "capacity": "20",
      "id": "1199",
      "id_obfuscated": "4jv4b",
      "latitude": "41.976341",
      "longitude": "-76.907494",
      "name": "Mosherville Bernie Team",
      "start_day": "2015-07-29",
      "start_dt": "2015-07-29 19:00:00",
      "start_time": "19:00:00",
      "venue_zip": "16936",
      "bernieID": 1646
    },
    {
      "attendee_count": 34,
      "capacity": "0",
      "id": "1200",
      "id_obfuscated": "4jv4c",
      "latitude": "41.804878",
      "longitude": "-73.122765",
      "name": "CT FOR BERNIE EVENT",
      "start_day": "2015-07-29",
      "start_dt": "2015-07-29 19:00:00",
      "start_time": "19:00:00",
      "venue_zip": "06790",
      "bernieID": 1647
    },
    {
      "attendee_count": 6,
      "capacity": "20",
      "id": "3248",
      "id_obfuscated": "4vxsm",
      "latitude": "42.235432",
      "longitude": "-84.401459",
      "name": "Jackson Mi for Bernie",
      "start_day": "2015-07-29",
      "start_dt": "2015-07-29 19:00:00",
      "start_time": "19:00:00",
      "venue_zip": "49203",
      "bernieID": 1648
    },
    {
      "attendee_count": 2,
      "capacity": "0",
      "id": "3760",
      "id_obfuscated": "4jtv3",
      "latitude": "41.609573",
      "longitude": "-93.557205",
      "name": "East Des Moines Organizing Meeting and House Party",
      "start_day": "2015-07-29",
      "start_dt": "2015-07-29 18:00:00",
      "start_time": "18:00:00",
      "venue_zip": "50317",
      "bernieID": 1649
    },
    {
      "attendee_count": 19,
      "capacity": "25",
      "id": "433",
      "id_obfuscated": "wrbh",
      "latitude": "40.948639",
      "longitude": "-88.151115",
      "name": "Cabery Bernie Sanders Organizing Meeting",
      "start_day": "2015-07-29",
      "start_dt": "2015-07-29 18:00:00",
      "start_time": "18:00:00",
      "venue_zip": "60919",
      "bernieID": 1650
    },
    {
      "attendee_count": 52,
      "capacity": "60",
      "id": "1201",
      "id_obfuscated": "4jv4k",
      "latitude": "42.973400",
      "longitude": "-71.694977",
      "name": "New Boston Campaign for Bernie Sanders",
      "start_day": "2015-07-29",
      "start_dt": "2015-07-29 19:00:00",
      "start_time": "19:00:00",
      "venue_zip": "03070",
      "bernieID": 1651
    },
    {
      "attendee_count": 30,
      "capacity": "30",
      "id": "1969",
      "id_obfuscated": "4jjlw",
      "latitude": "41.770889",
      "longitude": "-72.544289",
      "name": "Grassroots Effort in Support of Bernie Sanders for President",
      "start_day": "2015-07-29",
      "start_dt": "2015-07-29 19:00:00",
      "start_time": "19:00:00",
      "venue_zip": "06040",
      "bernieID": 1652
    },
    {
      "attendee_count": 0,
      "capacity": "15",
      "id": "3505",
      "id_obfuscated": "4vxzb",
      "latitude": "29.460470",
      "longitude": "-81.227135",
      "name": "Palm Coast for Bernie",
      "start_day": "2015-07-29",
      "start_dt": "2015-07-29 19:00:00",
      "start_time": "19:00:00",
      "venue_zip": "32164",
      "bernieID": 1653
    },
    {
      "attendee_count": 15,
      "capacity": "200",
      "id": "2226",
      "id_obfuscated": "4v5xx",
      "latitude": "43.956200",
      "longitude": "-72.324303",
      "name": "Discover the Bernie Difference with neighbors in the  Vershire Center",
      "start_day": "2015-07-29",
      "start_dt": "2015-07-29 19:00:00",
      "start_time": "19:00:00",
      "venue_zip": "05079",
      "bernieID": 1654
    },
    {
      "attendee_count": 7,
      "capacity": "35",
      "id": "3762",
      "id_obfuscated": "4jtvh",
      "latitude": "41.142807",
      "longitude": "-73.248932",
      "name": "Fairfield, CT",
      "start_day": "2015-07-29",
      "start_dt": "2015-07-29 19:00:00",
      "start_time": "19:00:00",
      "venue_zip": "06824",
      "bernieID": 1655
    },
    {
      "attendee_count": 10,
      "capacity": "10",
      "id": "691",
      "id_obfuscated": "wqb",
      "latitude": "30.226452",
      "longitude": "-97.741760",
      "name": "South Austin for Bernie Organizing Meeting",
      "start_day": "2015-07-29",
      "start_dt": "2015-07-29 18:00:00",
      "start_time": "18:00:00",
      "venue_zip": "78741",
      "bernieID": 1656
    },
    {
      "attendee_count": 25,
      "capacity": "35",
      "id": "1203",
      "id_obfuscated": "4jv43",
      "latitude": "41.948475",
      "longitude": "-71.290054",
      "name": "Attleboro Organizing Meeting",
      "start_day": "2015-07-29",
      "start_dt": "2015-07-29 19:00:00",
      "start_time": "19:00:00",
      "venue_zip": "02703",
      "bernieID": 1657
    },
    {
      "attendee_count": 7,
      "capacity": "0",
      "id": "3251",
      "id_obfuscated": "4vxs7",
      "latitude": "27.933336",
      "longitude": "-80.679527",
      "name": "Help Senator Bernie Sanders kickoff his campaign and help to organize a strong grassroots organization.,",
      "start_day": "2015-07-29",
      "start_dt": "2015-07-29 19:00:00",
      "start_time": "19:00:00",
      "venue_zip": "32908",
      "bernieID": 1658
    },
    {
      "attendee_count": 70,
      "capacity": "70",
      "id": "436",
      "id_obfuscated": "wrbx",
      "latitude": "34.095333",
      "longitude": "-118.296967",
      "name": "East Hollywood Bernie Meet Up at Beat Bop Boom",
      "start_day": "2015-07-29",
      "start_dt": "2015-07-29 19:00:00",
      "start_time": "19:00:00",
      "venue_zip": "90029",
      "bernieID": 1659
    },
    {
      "attendee_count": 45,
      "capacity": "45",
      "id": "1972",
      "id_obfuscated": "4jjgx",
      "latitude": "27.793768",
      "longitude": "-97.401955",
      "name": "Coastal Bend Progressives for Bernie",
      "start_day": "2015-07-29",
      "start_dt": "2015-07-29 18:00:00",
      "start_time": "18:00:00",
      "venue_zip": "78403",
      "bernieID": 1660
    },
    {
      "attendee_count": 25,
      "capacity": "25",
      "id": "2740",
      "id_obfuscated": "4v7ck",
      "latitude": "40.572979",
      "longitude": "-74.438377",
      "name": "2800 for Bernie",
      "start_day": "2015-07-29",
      "start_dt": "2015-07-29 19:00:00",
      "start_time": "19:00:00",
      "venue_zip": "08854",
      "bernieID": 1661
    },
    {
      "attendee_count": 3,
      "capacity": "0",
      "id": "3252",
      "id_obfuscated": "4vxsc",
      "latitude": "44.203541",
      "longitude": "-91.831184",
      "name": "Bernie Sanders Event in Buffalo City",
      "start_day": "2015-07-29",
      "start_dt": "2015-07-29 18:00:00",
      "start_time": "18:00:00",
      "venue_zip": "54622",
      "bernieID": 1662
    },
    {
      "attendee_count": 3,
      "capacity": "200",
      "id": "2229",
      "id_obfuscated": "4v5x3",
      "latitude": "47.022713",
      "longitude": "-91.670731",
      "name": "North Shore for Sanders (near Lake Superior from Duluth to Grand Portage)",
      "start_day": "2015-07-29",
      "start_dt": "2015-07-29 18:00:00",
      "start_time": "18:00:00",
      "venue_zip": "55616",
      "bernieID": 1663
    },
    {
      "attendee_count": 25,
      "capacity": "140",
      "id": "3253",
      "id_obfuscated": "4vxsk",
      "latitude": "41.471008",
      "longitude": "-73.391556",
      "name": "Brookfield Library - Bernie Sanders 2016 Organizing Meeting",
      "start_day": "2015-07-29",
      "start_dt": "2015-07-29 19:00:00",
      "start_time": "19:00:00",
      "venue_zip": "06804",
      "bernieID": 1664
    },
    {
      "attendee_count": 1,
      "capacity": "0",
      "id": "3509",
      "id_obfuscated": "4vxz4",
      "latitude": "40.430294",
      "longitude": "-78.413010",
      "name": "Blair County For Bernie. Altoona meeting",
      "start_day": "2015-07-29",
      "start_dt": "2015-07-29 19:00:00",
      "start_time": "19:00:00",
      "venue_zip": "16635",
      "bernieID": 1665
    },
    {
      "attendee_count": 14,
      "capacity": "0",
      "id": "438",
      "id_obfuscated": "wrb5",
      "latitude": "35.379913",
      "longitude": "-83.223122",
      "name": "Jackson County & Westward's 3rd organizing meeting (WNC)",
      "start_day": "2015-07-29",
      "start_dt": "2015-07-29 19:00:00",
      "start_time": "19:00:00",
      "venue_zip": "28725",
      "bernieID": 1666
    },
    {
      "attendee_count": 10,
      "capacity": "10",
      "id": "694",
      "id_obfuscated": "wqy",
      "latitude": "37.442326",
      "longitude": "-76.901367",
      "name": "Organizing New Kent for Bernie",
      "start_day": "2015-07-29",
      "start_dt": "2015-07-29 19:00:00",
      "start_time": "19:00:00",
      "venue_zip": "23089",
      "bernieID": 1667
    },
    {
      "attendee_count": 14,
      "capacity": "0",
      "id": "1462",
      "id_obfuscated": "4jv9v",
      "latitude": "37.635876",
      "longitude": "-75.798576",
      "name": "ESVA for Bernie Sanders",
      "start_day": "2015-07-29",
      "start_dt": "2015-07-29 19:00:00",
      "start_time": "19:00:00",
      "venue_zip": "23410",
      "bernieID": 1668
    },
    {
      "attendee_count": 14,
      "capacity": "45",
      "id": "2230",
      "id_obfuscated": "4v5xm",
      "latitude": "43.084747",
      "longitude": "-88.254852",
      "name": "Pewaukee Area Bernie Sanders Support Celebration",
      "start_day": "2015-07-29",
      "start_dt": "2015-07-29 18:00:00",
      "start_time": "18:00:00",
      "venue_zip": "53072",
      "bernieID": 1669
    },
    {
      "attendee_count": 7,
      "capacity": "7",
      "id": "2486",
      "id_obfuscated": "4v7bq",
      "latitude": "39.933296",
      "longitude": "-75.156693",
      "name": "South Philly 4 Bernie",
      "start_day": "2015-07-29",
      "start_dt": "2015-07-29 19:00:00",
      "start_time": "19:00:00",
      "venue_zip": "19147",
      "bernieID": 1670
    },
    {
      "attendee_count": 5,
      "capacity": "0",
      "id": "3254",
      "id_obfuscated": "4vxsz",
      "latitude": "42.179245",
      "longitude": "-73.525024",
      "name": "Folkies for Bernie",
      "start_day": "2015-07-29",
      "start_dt": "2015-07-29 19:00:00",
      "start_time": "19:00:00",
      "venue_zip": "12529",
      "bernieID": 1671
    },
    {
      "attendee_count": 32,
      "capacity": "600",
      "id": "695",
      "id_obfuscated": "wqd",
      "latitude": "43.417423",
      "longitude": "-83.964607",
      "name": "MBS organizing for Bernie",
      "start_day": "2015-07-29",
      "start_dt": "2015-07-29 19:00:00",
      "start_time": "19:00:00",
      "venue_zip": "48602",
      "bernieID": 1672
    },
    {
      "attendee_count": 113,
      "capacity": "0",
      "id": "1463",
      "id_obfuscated": "4jv9j",
      "latitude": "40.579163",
      "longitude": "-105.078888",
      "name": "Northern Colorado \"Bernie for President\" Kick Off.",
      "start_day": "2015-07-29",
      "start_dt": "2015-07-29 17:00:00",
      "start_time": "17:00:00",
      "venue_zip": "80528",
      "bernieID": 1673
    },
    {
      "attendee_count": 50,
      "capacity": "50",
      "id": "2487",
      "id_obfuscated": "4v7bb",
      "latitude": "30.423944",
      "longitude": "-97.702461",
      "name": "North Austin Organizational Kickoff",
      "start_day": "2015-07-29",
      "start_dt": "2015-07-29 18:00:00",
      "start_time": "18:00:00",
      "venue_zip": "78727",
      "bernieID": 1674
    },
    {
      "attendee_count": 8,
      "capacity": "0",
      "id": "2743",
      "id_obfuscated": "4v7cm",
      "latitude": "35.938202",
      "longitude": "-89.912323",
      "name": "Bernie's Blytheville Team",
      "start_day": "2015-07-29",
      "start_dt": "2015-07-29 18:00:00",
      "start_time": "18:00:00",
      "venue_zip": "72315",
      "bernieID": 1675
    },
    {
      "attendee_count": 20,
      "capacity": "20",
      "id": "2999",
      "id_obfuscated": "4vxrq",
      "latitude": "42.066219",
      "longitude": "-87.682587",
      "name": "Evanston Home Kickoff Party",
      "start_day": "2015-07-29",
      "start_dt": "2015-07-29 18:00:00",
      "start_time": "18:00:00",
      "venue_zip": "60201",
      "bernieID": 1676
    },
    {
      "attendee_count": 12,
      "capacity": "50",
      "id": "3255",
      "id_obfuscated": "4vxs3",
      "latitude": "40.685211",
      "longitude": "-99.083427",
      "name": "Buffalo County NE Bernie Sanders Event",
      "start_day": "2015-07-29",
      "start_dt": "2015-07-29 18:00:00",
      "start_time": "18:00:00",
      "venue_zip": "68847",
      "bernieID": 1677
    },
    {
      "attendee_count": 1,
      "capacity": "50",
      "id": "3511",
      "id_obfuscated": "4vxzl",
      "latitude": "39.615875",
      "longitude": "-84.225105",
      "name": "Miamisburg - 50 seats still available - 1 block away from Lexis-Nexis campus",
      "start_day": "2015-07-29",
      "start_dt": "2015-07-29 19:00:00",
      "start_time": "19:00:00",
      "venue_zip": "45342",
      "bernieID": 1678
    },
    {
      "attendee_count": 24,
      "capacity": "25",
      "id": "1976",
      "id_obfuscated": "4jjlp",
      "latitude": "41.937889",
      "longitude": "-73.395767",
      "name": "NWC locals for Bernie",
      "start_day": "2015-07-29",
      "start_dt": "2015-07-29 19:00:00",
      "start_time": "19:00:00",
      "venue_zip": "06039",
      "bernieID": 1679
    },
    {
      "attendee_count": 13,
      "capacity": "15",
      "id": "2488",
      "id_obfuscated": "4v7bc",
      "latitude": "44.905128",
      "longitude": "-72.805023",
      "name": "Franklin County Organizes for Bernie",
      "start_day": "2015-07-29",
      "start_dt": "2015-07-29 19:00:00",
      "start_time": "19:00:00",
      "venue_zip": "05450",
      "bernieID": 1680
    },
    {
      "attendee_count": 3,
      "capacity": "10",
      "id": "3256",
      "id_obfuscated": "4vxpj",
      "latitude": "40.502571",
      "longitude": "-74.658806",
      "name": "Hillsborough is Berning Up!",
      "start_day": "2015-07-29",
      "start_dt": "2015-07-29 19:00:00",
      "start_time": "19:00:00",
      "venue_zip": "08844",
      "bernieID": 1681
    },
    {
      "attendee_count": 1,
      "capacity": "8",
      "id": "3512",
      "id_obfuscated": "4vxz8",
      "latitude": "42.479057",
      "longitude": "-83.263947",
      "name": "Southfield Progressives for Bernie",
      "start_day": "2015-07-29",
      "start_dt": "2015-07-29 19:00:00",
      "start_time": "19:00:00",
      "venue_zip": "48033",
      "bernieID": 1682
    },
    {
      "attendee_count": 50,
      "capacity": "50",
      "id": "441",
      "id_obfuscated": "wrsw",
      "latitude": "41.097988",
      "longitude": "-81.540443",
      "name": "AKRON \"FEELS THE  BERN\"",
      "start_day": "2015-07-29",
      "start_dt": "2015-07-29 19:00:00",
      "start_time": "19:00:00",
      "venue_zip": "44303",
      "bernieID": 1683
    },
    {
      "attendee_count": 58,
      "capacity": "0",
      "id": "953",
      "id_obfuscated": "wc4",
      "latitude": "29.663994",
      "longitude": "-82.332977",
      "name": "Gainesville is Feeling the Bern",
      "start_day": "2015-07-29",
      "start_dt": "2015-07-29 19:00:00",
      "start_time": "19:00:00",
      "venue_zip": "32601",
      "bernieID": 1684
    },
    {
      "attendee_count": 50,
      "capacity": "50",
      "id": "1465",
      "id_obfuscated": "4jv9d",
      "latitude": "41.542957",
      "longitude": "-87.679047",
      "name": "Chicago Southland for Bernie Sanders Organizing Meeting",
      "start_day": "2015-07-29",
      "start_dt": "2015-07-29 18:00:00",
      "start_time": "18:00:00",
      "venue_zip": "60422",
      "bernieID": 1685
    },
    {
      "attendee_count": 10,
      "capacity": "50",
      "id": "2745",
      "id_obfuscated": "4v7k4",
      "latitude": "32.378460",
      "longitude": "-86.310272",
      "name": "River Region meet-up",
      "start_day": "2015-07-29",
      "start_dt": "2015-07-29 18:00:00",
      "start_time": "18:00:00",
      "venue_zip": "36104",
      "bernieID": 1686
    },
    {
      "attendee_count": 12,
      "capacity": "20",
      "id": "3257",
      "id_obfuscated": "4vxpw",
      "latitude": "41.145332",
      "longitude": "-73.420349",
      "name": "Watch Bernie's broadcast in Norwalk, Creeping Hemlock",
      "start_day": "2015-07-29",
      "start_dt": "2015-07-29 19:00:00",
      "start_time": "19:00:00",
      "venue_zip": "06851",
      "bernieID": 1687
    },
    {
      "attendee_count": 8,
      "capacity": "35",
      "id": "3513",
      "id_obfuscated": "4vxzf",
      "latitude": "35.589611",
      "longitude": "-77.271133",
      "name": "7:00 PM House party for Bernie Sanders at 168 Richard Lee Dr. Greenville, NC 27858",
      "start_day": "2015-07-29",
      "start_dt": "2015-07-29 19:00:00",
      "start_time": "19:00:00",
      "venue_zip": "27858",
      "bernieID": 1688
    },
    {
      "attendee_count": 53,
      "capacity": "0",
      "id": "698",
      "id_obfuscated": "wq8",
      "latitude": "37.431316",
      "longitude": "-79.153641",
      "name": "Lynchburg Bernie Sanders Organizing Kick-off",
      "start_day": "2015-07-29",
      "start_dt": "2015-07-29 19:00:00",
      "start_time": "19:00:00",
      "venue_zip": "24503",
      "bernieID": 1689
    },
    {
      "attendee_count": 75,
      "capacity": "75",
      "id": "1466",
      "id_obfuscated": "4jv92",
      "latitude": "42.317837",
      "longitude": "-72.627304",
      "name": "The Valley Behind Bernie",
      "start_day": "2015-07-29",
      "start_dt": "2015-07-29 19:00:00",
      "start_time": "19:00:00",
      "venue_zip": "01060",
      "bernieID": 1690
    },
    {
      "attendee_count": 43,
      "capacity": "80",
      "id": "1211",
      "id_obfuscated": "4jvgv",
      "latitude": "29.921968",
      "longitude": "-90.107391",
      "name": "Bernie Sanders event!",
      "start_day": "2015-07-29",
      "start_dt": "2015-07-29 18:00:00",
      "start_time": "18:00:00",
      "venue_zip": "70115",
      "bernieID": 1691
    },
    {
      "attendee_count": 40,
      "capacity": "40",
      "id": "1467",
      "id_obfuscated": "4jv99",
      "latitude": "41.835220",
      "longitude": "-71.408966",
      "name": "Providence Student/Young Professional Organization Meeting",
      "start_day": "2015-07-29",
      "start_dt": "2015-07-29 19:00:00",
      "start_time": "19:00:00",
      "venue_zip": "02904",
      "bernieID": 1692
    },
    {
      "attendee_count": 75,
      "capacity": "0",
      "id": "1723",
      "id_obfuscated": "4jv7r",
      "latitude": "39.782246",
      "longitude": "-84.184753",
      "name": "Feel the Bern with the Ironworkers Local 209!",
      "start_day": "2015-07-29",
      "start_dt": "2015-07-29 19:00:00",
      "start_time": "19:00:00",
      "venue_zip": "45404",
      "bernieID": 1693
    },
    {
      "attendee_count": 3,
      "capacity": "15",
      "id": "3259",
      "id_obfuscated": "4vxpg",
      "latitude": "47.144501",
      "longitude": "-123.771797",
      "name": "Aberdeen",
      "start_day": "2015-07-29",
      "start_dt": "2015-07-29 19:00:00",
      "start_time": "19:00:00",
      "venue_zip": "98520",
      "bernieID": 1694
    },
    {
      "attendee_count": 20,
      "capacity": "20",
      "id": "444",
      "id_obfuscated": "wrsl",
      "latitude": "42.919624",
      "longitude": "-85.484772",
      "name": "Bernie Sander's Kickoff Meeting in Grand Rapids, MI",
      "start_day": "2015-07-29",
      "start_dt": "2015-07-29 19:00:00",
      "start_time": "19:00:00",
      "venue_zip": "49546",
      "bernieID": 1695
    },
    {
      "attendee_count": 5,
      "capacity": "12",
      "id": "700",
      "id_obfuscated": "wqm",
      "latitude": "38.922459",
      "longitude": "-76.917030",
      "name": "Feel the Bern!  Sanders 2016",
      "start_day": "2015-07-29",
      "start_dt": "2015-07-29 19:00:00",
      "start_time": "19:00:00",
      "venue_zip": "20785",
      "bernieID": 1696
    },
    {
      "attendee_count": 10,
      "capacity": "10",
      "id": "1724",
      "id_obfuscated": "4jv53",
      "latitude": "41.380432",
      "longitude": "-73.430244",
      "name": "Bethel Evening Gathering for Bernie Sanders",
      "start_day": "2015-07-29",
      "start_dt": "2015-07-29 19:00:00",
      "start_time": "19:00:00",
      "venue_zip": "06810",
      "bernieID": 1697
    },
    {
      "attendee_count": 5,
      "capacity": "30",
      "id": "3516",
      "id_obfuscated": "4vxzy",
      "latitude": "43.083286",
      "longitude": "-89.520004",
      "name": "Bern Madison Far West",
      "start_day": "2015-07-29",
      "start_dt": "2015-07-29 18:00:00",
      "start_time": "18:00:00",
      "venue_zip": "53717",
      "bernieID": 1698
    },
    {
      "attendee_count": 15,
      "capacity": "15",
      "id": "445",
      "id_obfuscated": "wrsq",
      "latitude": "33.794739",
      "longitude": "-84.352448",
      "name": "Moorningside/Virginia Highlands kick-off meeting for Bernie Sanders",
      "start_day": "2015-07-29",
      "start_dt": "2015-07-29 19:00:00",
      "start_time": "19:00:00",
      "venue_zip": "30306",
      "bernieID": 1699
    },
    {
      "attendee_count": 15,
      "capacity": "15",
      "id": "957",
      "id_obfuscated": "wcb",
      "latitude": "33.414433",
      "longitude": "-86.716309",
      "name": "Birmingham (459 and 280) Meeting",
      "start_day": "2015-07-29",
      "start_dt": "2015-07-29 18:00:00",
      "start_time": "18:00:00",
      "venue_zip": "35242",
      "bernieID": 1700
    },
    {
      "attendee_count": 15,
      "capacity": "16",
      "id": "2237",
      "id_obfuscated": "4v7tv",
      "latitude": "38.962456",
      "longitude": "-92.307014",
      "name": "CoMo for Sanders Organizing Meeting",
      "start_day": "2015-07-29",
      "start_dt": "2015-07-29 18:00:00",
      "start_time": "18:00:00",
      "venue_zip": "65201",
      "bernieID": 1701
    },
    {
      "attendee_count": 12,
      "capacity": "20",
      "id": "2749",
      "id_obfuscated": "4v7kr",
      "latitude": "42.838783",
      "longitude": "-88.737312",
      "name": "Organizing Meeting for Bernie Sanders Whitewater , Wisconsin",
      "start_day": "2015-07-29",
      "start_dt": "2015-07-29 18:00:00",
      "start_time": "18:00:00",
      "venue_zip": "53190",
      "bernieID": 1702
    },
    {
      "attendee_count": 34,
      "capacity": "200",
      "id": "1982",
      "id_obfuscated": "4jjlb",
      "latitude": "34.874599",
      "longitude": "-84.326385",
      "name": "Fannin County Democrats (Blue Ridge GA)",
      "start_day": "2015-07-29",
      "start_dt": "2015-07-29 19:00:00",
      "start_time": "19:00:00",
      "venue_zip": "30513",
      "bernieID": 1703
    },
    {
      "attendee_count": 0,
      "capacity": "30",
      "id": "3262",
      "id_obfuscated": "4vxpr",
      "latitude": "42.460838",
      "longitude": "-93.820389",
      "name": "Bernie Sanders House Organizing Meeting- Hamilton County, IA",
      "start_day": "2015-07-29",
      "start_dt": "2015-07-29 18:00:00",
      "start_time": "18:00:00",
      "venue_zip": "50595",
      "bernieID": 1704
    },
    {
      "attendee_count": 30,
      "capacity": "30",
      "id": "447",
      "id_obfuscated": "wrsg",
      "latitude": "40.033310",
      "longitude": "-83.085831",
      "name": "Support Bernie in Upper Arlington",
      "start_day": "2015-07-29",
      "start_dt": "2015-07-29 19:00:00",
      "start_time": "19:00:00",
      "venue_zip": "43220",
      "bernieID": 1705
    },
    {
      "attendee_count": 25,
      "capacity": "25",
      "id": "703",
      "id_obfuscated": "wq3",
      "latitude": "38.531574",
      "longitude": "-90.005470",
      "name": "Organizing for Bernie",
      "start_day": "2015-07-29",
      "start_dt": "2015-07-29 18:00:00",
      "start_time": "18:00:00",
      "venue_zip": "62226",
      "bernieID": 1706
    },
    {
      "attendee_count": 14,
      "capacity": "21",
      "id": "1471",
      "id_obfuscated": "4jv9p",
      "latitude": "38.880352",
      "longitude": "-76.993744",
      "name": "Bernie Sanders organizing meeting",
      "start_day": "2015-07-29",
      "start_dt": "2015-07-29 19:00:00",
      "start_time": "19:00:00",
      "venue_zip": "20003",
      "bernieID": 1707
    },
    {
      "attendee_count": 25,
      "capacity": "25",
      "id": "1727",
      "id_obfuscated": "4jv55",
      "latitude": "38.814079",
      "longitude": "-77.057137",
      "name": "Del Ray/Rosemont on Braddock Rd Kickoff",
      "start_day": "2015-07-29",
      "start_dt": "2015-07-29 19:00:00",
      "start_time": "19:00:00",
      "venue_zip": "22301",
      "bernieID": 1708
    },
    {
      "attendee_count": 69,
      "capacity": "0",
      "id": "1983",
      "id_obfuscated": "4jjls",
      "latitude": "41.930023",
      "longitude": "-88.749695",
      "name": "DeKalb County for Bernie 2016, DeKalb, IL",
      "start_day": "2015-07-29",
      "start_dt": "2015-07-29 18:00:00",
      "start_time": "18:00:00",
      "venue_zip": "60115",
      "bernieID": 1709
    },
    {
      "attendee_count": 23,
      "capacity": "1000",
      "id": "3519",
      "id_obfuscated": "4vxz9",
      "latitude": "35.911610",
      "longitude": "-79.077019",
      "name": "CARRBORO/CHAPEL HILL SANDERS ORGANIZING EVENT",
      "start_day": "2015-07-29",
      "start_dt": "2015-07-29 19:00:00",
      "start_time": "19:00:00",
      "venue_zip": "27510",
      "bernieID": 1710
    },
    {
      "attendee_count": 100,
      "capacity": "0",
      "id": "704",
      "id_obfuscated": "w4p",
      "latitude": "42.449821",
      "longitude": "-76.481842",
      "name": "Ithaca Community Bernie Sanders Organization Meeting",
      "start_day": "2015-07-29",
      "start_dt": "2015-07-29 19:00:00",
      "start_time": "19:00:00",
      "venue_zip": "14850",
      "bernieID": 1711
    },
    {
      "attendee_count": 1,
      "capacity": "20",
      "id": "1472",
      "id_obfuscated": "4jvpt",
      "latitude": "36.958065",
      "longitude": "-91.033356",
      "name": "Van buren citizens for Bernie!",
      "start_day": "2015-07-29",
      "start_dt": "2015-07-29 19:00:00",
      "start_time": "19:00:00",
      "venue_zip": "63965",
      "bernieID": 1712
    },
    {
      "attendee_count": 1,
      "capacity": "12",
      "id": "2240",
      "id_obfuscated": "4v5mz",
      "latitude": "32.203098",
      "longitude": "-82.495201",
      "name": "Ailey GA",
      "start_day": "2015-07-29",
      "start_dt": "2015-07-29 19:00:00",
      "start_time": "19:00:00",
      "venue_zip": "30410",
      "bernieID": 1713
    },
    {
      "attendee_count": 11,
      "capacity": "15",
      "id": "2496",
      "id_obfuscated": "4v74g",
      "latitude": "44.112480",
      "longitude": "-72.156723",
      "name": "Bernie Sanders for President Campaign Organizing Meeting in Newbury Vt",
      "start_day": "2015-07-29",
      "start_dt": "2015-07-29 19:00:00",
      "start_time": "19:00:00",
      "venue_zip": "05051",
      "bernieID": 1714
    },
    {
      "attendee_count": 17,
      "capacity": "30",
      "id": "2752",
      "id_obfuscated": "4v72k",
      "latitude": "28.401793",
      "longitude": "-82.642937",
      "name": "Join us in Hudson, Florida to brainstorm on how WE can get Bernie elected!",
      "start_day": "2015-07-29",
      "start_dt": "2015-07-29 19:00:00",
      "start_time": "19:00:00",
      "venue_zip": "34667",
      "bernieID": 1715
    },
    {
      "attendee_count": 1,
      "capacity": "75",
      "id": "3776",
      "id_obfuscated": "4vx7f",
      "latitude": "38.384609",
      "longitude": "-78.986816",
      "name": "Bernie supporters in Rockingham and Augusta Counties unite!",
      "start_day": "2015-07-29",
      "start_dt": "2015-07-29 19:00:00",
      "start_time": "19:00:00",
      "venue_zip": "22812",
      "bernieID": 1716
    },
    {
      "attendee_count": 40,
      "capacity": "40",
      "id": "449",
      "id_obfuscated": "wrg5",
      "latitude": "30.320419",
      "longitude": "-97.973846",
      "name": "Bernie Kickoff Bee Cave Austin",
      "start_day": "2015-07-29",
      "start_dt": "2015-07-29 18:00:00",
      "start_time": "18:00:00",
      "venue_zip": "78738",
      "bernieID": 1717
    },
    {
      "attendee_count": 10,
      "capacity": "10",
      "id": "1729",
      "id_obfuscated": "4jvz2",
      "latitude": "39.228039",
      "longitude": "-84.390007",
      "name": "Blue Ash for Bernie Sanders",
      "start_day": "2015-07-29",
      "start_dt": "2015-07-29 19:00:00",
      "start_time": "19:00:00",
      "venue_zip": "45242",
      "bernieID": 1718
    },
    {
      "attendee_count": 35,
      "capacity": "35",
      "id": "3265",
      "id_obfuscated": "4vxgk",
      "latitude": "38.980564",
      "longitude": "-76.489075",
      "name": "Organizing Kickoff for Bernie Sanders",
      "start_day": "2015-07-29",
      "start_dt": "2015-07-29 19:00:00",
      "start_time": "19:00:00",
      "venue_zip": "21401",
      "bernieID": 1719
    },
    {
      "attendee_count": 26,
      "capacity": "0",
      "id": "450",
      "id_obfuscated": "wrg3",
      "latitude": "40.584946",
      "longitude": "-73.818810",
      "name": "Rockaway Park For Bernie",
      "start_day": "2015-07-29",
      "start_dt": "2015-07-29 19:00:00",
      "start_time": "19:00:00",
      "venue_zip": "11694",
      "bernieID": 1720
    },
    {
      "attendee_count": 27,
      "capacity": "0",
      "id": "1474",
      "id_obfuscated": "4jvpv",
      "latitude": "44.517166",
      "longitude": "-88.021248",
      "name": "Nationwide Bernie Sanders launch: a reason to connect and celebrate!",
      "start_day": "2015-07-29",
      "start_dt": "2015-07-29 18:00:00",
      "start_time": "18:00:00",
      "venue_zip": "54303",
      "bernieID": 1721
    },
    {
      "attendee_count": 12,
      "capacity": "12",
      "id": "2242",
      "id_obfuscated": "4v5mm",
      "latitude": "38.613140",
      "longitude": "-90.230110",
      "name": "Compton Heights organizing meeting for Bernie Sanders",
      "start_day": "2015-07-29",
      "start_dt": "2015-07-29 18:00:00",
      "start_time": "18:00:00",
      "venue_zip": "63104",
      "bernieID": 1722
    },
    {
      "attendee_count": 5,
      "capacity": "10",
      "id": "3778",
      "id_obfuscated": "4vx7k",
      "latitude": "42.410728",
      "longitude": "-72.523094",
      "name": "Pine Street Amherst for Bernie Meeting",
      "start_day": "2015-07-29",
      "start_dt": "2015-07-29 19:00:00",
      "start_time": "19:00:00",
      "venue_zip": "01002",
      "bernieID": 1723
    },
    {
      "attendee_count": 22,
      "capacity": "25",
      "id": "1219",
      "id_obfuscated": "4jvrf",
      "latitude": "41.963200",
      "longitude": "-71.182899",
      "name": "Bernie Sanders Norton MA Kick off meeting",
      "start_day": "2015-07-29",
      "start_dt": "2015-07-29 19:00:00",
      "start_time": "19:00:00",
      "venue_zip": "02766",
      "bernieID": 1724
    },
    {
      "attendee_count": 15,
      "capacity": "15",
      "id": "1731",
      "id_obfuscated": "4jvz8",
      "latitude": "41.713062",
      "longitude": "-74.071617",
      "name": "Bernie Sanders Organizing Kickoff in New Paltz, NY",
      "start_day": "2015-07-29",
      "start_dt": "2015-07-29 19:00:00",
      "start_time": "19:00:00",
      "venue_zip": "12561",
      "bernieID": 1725
    },
    {
      "attendee_count": 0,
      "capacity": "50",
      "id": "3779",
      "id_obfuscated": "4vx7z",
      "latitude": "29.024218",
      "longitude": "-81.300667",
      "name": "Volusia County for Bernie Sanders",
      "start_day": "2015-07-29",
      "start_dt": "2015-07-29 19:00:00",
      "start_time": "19:00:00",
      "venue_zip": "32724",
      "bernieID": 1726
    },
    {
      "attendee_count": 100,
      "capacity": "100",
      "id": "708",
      "id_obfuscated": "w49",
      "latitude": "35.189335",
      "longitude": "-80.875488",
      "name": "Join Bernie Sander's Grassroots Revolution!",
      "start_day": "2015-07-29",
      "start_dt": "2015-07-29 19:00:00",
      "start_time": "19:00:00",
      "venue_zip": "28209",
      "bernieID": 1727
    },
    {
      "attendee_count": 15,
      "capacity": "15",
      "id": "1476",
      "id_obfuscated": "4jvsh",
      "latitude": "37.281338",
      "longitude": "-76.714523",
      "name": "The 'Burg Burns for Bernie",
      "start_day": "2015-07-29",
      "start_dt": "2015-07-29 19:00:00",
      "start_time": "19:00:00",
      "venue_zip": "23185",
      "bernieID": 1728
    },
    {
      "attendee_count": 18,
      "capacity": "20",
      "id": "2244",
      "id_obfuscated": "4v5m8",
      "latitude": "44.954632",
      "longitude": "-93.294441",
      "name": "Uptown for Bernie",
      "start_day": "2015-07-29",
      "start_dt": "2015-07-29 18:00:00",
      "start_time": "18:00:00",
      "venue_zip": "55408",
      "bernieID": 1729
    },
    {
      "attendee_count": 10,
      "capacity": "40",
      "id": "3524",
      "id_obfuscated": "4vx8t",
      "latitude": "40.868752",
      "longitude": "-75.254364",
      "name": "Slate Belt Kick Off for Bernie Sanders",
      "start_day": "2015-07-29",
      "start_dt": "2015-07-29 19:00:00",
      "start_time": "19:00:00",
      "venue_zip": "18072",
      "bernieID": 1730
    },
    {
      "attendee_count": 20,
      "capacity": "20",
      "id": "1733",
      "id_obfuscated": "4jvzs",
      "latitude": "44.012505",
      "longitude": "-73.164757",
      "name": "A Bernie for President Organizing meeting in Middlebury, VT",
      "start_day": "2015-07-29",
      "start_dt": "2015-07-29 19:00:00",
      "start_time": "19:00:00",
      "venue_zip": "05753",
      "bernieID": 1731
    },
    {
      "attendee_count": 10,
      "capacity": "10",
      "id": "1989",
      "id_obfuscated": "4jjvh",
      "latitude": "35.399082",
      "longitude": "-80.921570",
      "name": "July 29 Organizing Meeting",
      "start_day": "2015-07-29",
      "start_dt": "2015-07-29 19:00:00",
      "start_time": "19:00:00",
      "venue_zip": "28078",
      "bernieID": 1732
    },
    {
      "attendee_count": 20,
      "capacity": "20",
      "id": "2245",
      "id_obfuscated": "4v5mf",
      "latitude": "43.053978",
      "longitude": "-72.563751",
      "name": "Bernie in Westminster West",
      "start_day": "2015-07-29",
      "start_dt": "2015-07-29 19:00:00",
      "start_time": "19:00:00",
      "venue_zip": "05346",
      "bernieID": 1733
    },
    {
      "attendee_count": 90,
      "capacity": "90",
      "id": "454",
      "id_obfuscated": "wrg7",
      "latitude": "42.219845",
      "longitude": "-88.230560",
      "name": "NW Chicago for Bernie Sanders",
      "start_day": "2015-07-29",
      "start_dt": "2015-07-29 18:00:00",
      "start_time": "18:00:00",
      "venue_zip": "60013",
      "bernieID": 1734
    },
    {
      "attendee_count": 76,
      "capacity": "0",
      "id": "966",
      "id_obfuscated": "w2x",
      "latitude": "39.490807",
      "longitude": "-74.527672",
      "name": "Galloway Township Friends of Bernie Sanders",
      "start_day": "2015-07-29",
      "start_dt": "2015-07-29 19:00:00",
      "start_time": "19:00:00",
      "venue_zip": "08205",
      "bernieID": 1735
    },
    {
      "attendee_count": 2,
      "capacity": "10",
      "id": "1222",
      "id_obfuscated": "4jvry",
      "latitude": "39.323582",
      "longitude": "-76.615738",
      "name": "Baltimore for Bernie",
      "start_day": "2015-07-29",
      "start_dt": "2015-07-29 19:00:00",
      "start_time": "19:00:00",
      "venue_zip": "21218",
      "bernieID": 1736
    },
    {
      "attendee_count": 50,
      "capacity": "50",
      "id": "2502",
      "id_obfuscated": "4v74w",
      "latitude": "29.553640",
      "longitude": "-95.575081",
      "name": "Bernie Sanders Supporters - Sugar Land and surrounding areas",
      "start_day": "2015-07-29",
      "start_dt": "2015-07-29 18:00:00",
      "start_time": "18:00:00",
      "venue_zip": "77479",
      "bernieID": 1737
    },
    {
      "attendee_count": 0,
      "capacity": "20",
      "id": "3782",
      "id_obfuscated": "4vx79",
      "latitude": "38.601574",
      "longitude": "-90.218002",
      "name": "Organizing for Bernie Meeting - Benton Park",
      "start_day": "2015-07-29",
      "start_dt": "2015-07-29 18:00:00",
      "start_time": "18:00:00",
      "venue_zip": "63118",
      "bernieID": 1738
    },
    {
      "attendee_count": 6,
      "capacity": "20",
      "id": "711",
      "id_obfuscated": "w42",
      "latitude": "42.950230",
      "longitude": "-78.905533",
      "name": "Riverside for Bernie 2016",
      "start_day": "2015-07-29",
      "start_dt": "2015-07-29 19:00:00",
      "start_time": "19:00:00",
      "venue_zip": "14207",
      "bernieID": 1739
    },
    {
      "attendee_count": 20,
      "capacity": "20",
      "id": "1991",
      "id_obfuscated": "4jjv7",
      "latitude": "40.754189",
      "longitude": "-111.866280",
      "name": "#Feelthebern84102 - A Community Organizes for Progress.",
      "start_day": "2015-07-29",
      "start_dt": "2015-07-29 19:00:00",
      "start_time": "19:00:00",
      "venue_zip": "84102",
      "bernieID": 1740
    },
    {
      "attendee_count": 22,
      "capacity": "0",
      "id": "2503",
      "id_obfuscated": "4v744",
      "latitude": "40.539715",
      "longitude": "-76.961388",
      "name": "#FeelTheBern Valley Organizing Meeting",
      "start_day": "2015-07-29",
      "start_dt": "2015-07-29 19:00:00",
      "start_time": "19:00:00",
      "venue_zip": "17061",
      "bernieID": 1741
    },
    {
      "attendee_count": 15,
      "capacity": "50",
      "id": "456",
      "id_obfuscated": "wrlw",
      "latitude": "42.117607",
      "longitude": "-72.570389",
      "name": "Springfield MA Bernie Sanders Organizing Meeting",
      "start_day": "2015-07-29",
      "start_dt": "2015-07-29 19:00:00",
      "start_time": "19:00:00",
      "venue_zip": "01109",
      "bernieID": 1742
    },
    {
      "attendee_count": 20,
      "capacity": "20",
      "id": "712",
      "id_obfuscated": "w4k",
      "latitude": "26.307266",
      "longitude": "-80.205994",
      "name": "Parkland and Coral Springs supporting Bernie Sanders",
      "start_day": "2015-07-29",
      "start_dt": "2015-07-29 19:00:00",
      "start_time": "19:00:00",
      "venue_zip": "33067",
      "bernieID": 1743
    },
    {
      "attendee_count": 3,
      "capacity": "25",
      "id": "968",
      "id_obfuscated": "w94",
      "latitude": "36.077236",
      "longitude": "-80.282402",
      "name": "Ardmore Bernie Support meeting",
      "start_day": "2015-07-29",
      "start_dt": "2015-07-29 19:00:00",
      "start_time": "19:00:00",
      "venue_zip": "27103",
      "bernieID": 1744
    },
    {
      "attendee_count": 32,
      "capacity": "100",
      "id": "2504",
      "id_obfuscated": "4v742",
      "latitude": "47.650524",
      "longitude": "-121.912460",
      "name": "Rural Redmond/Carnation Sanders Supporters",
      "start_day": "2015-07-29",
      "start_dt": "2015-07-29 19:00:00",
      "start_time": "19:00:00",
      "venue_zip": "98014",
      "bernieID": 1745
    },
    {
      "attendee_count": 97,
      "capacity": "0",
      "id": "3016",
      "id_obfuscated": "4v75d",
      "latitude": "40.734715",
      "longitude": "-89.574234",
      "name": "Central Illinois for Bernie Sanders: Member Meeting and Action Plan",
      "start_day": "2015-07-29",
      "start_dt": "2015-07-29 18:00:00",
      "start_time": "18:00:00",
      "venue_zip": "61616",
      "bernieID": 1746
    },
    {
      "attendee_count": 4,
      "capacity": "20",
      "id": "3272",
      "id_obfuscated": "4vxgx",
      "latitude": "40.694729",
      "longitude": "-73.941795",
      "name": "Feeling the Bern in Bed Stuy",
      "start_day": "2015-07-29",
      "start_dt": "2015-07-29 19:00:00",
      "start_time": "19:00:00",
      "venue_zip": "11206",
      "bernieID": 1747
    },
    {
      "attendee_count": 25,
      "capacity": "25",
      "id": "457",
      "id_obfuscated": "wrl4",
      "latitude": "42.522816",
      "longitude": "-83.141068",
      "name": "Start the Revolution in Royal Oak",
      "start_day": "2015-07-29",
      "start_dt": "2015-07-29 19:00:00",
      "start_time": "19:00:00",
      "venue_zip": "48073",
      "bernieID": 1748
    },
    {
      "attendee_count": 16,
      "capacity": "16",
      "id": "1481",
      "id_obfuscated": "4jvpb",
      "latitude": "28.202944",
      "longitude": "-82.774979",
      "name": "Holiday is Hopeful with Bernie",
      "start_day": "2015-07-29",
      "start_dt": "2015-07-29 19:00:00",
      "start_time": "19:00:00",
      "venue_zip": "34691",
      "bernieID": 1749
    },
    {
      "attendee_count": 74,
      "capacity": "0",
      "id": "2505",
      "id_obfuscated": "4v749",
      "latitude": "41.660591",
      "longitude": "-86.184669",
      "name": "Bernie Sanders Campaign Kick-Off Event",
      "start_day": "2015-07-29",
      "start_dt": "2015-07-29 19:00:00",
      "start_time": "19:00:00",
      "venue_zip": "46544",
      "bernieID": 1750
    },
    {
      "attendee_count": 23,
      "capacity": "25",
      "id": "3529",
      "id_obfuscated": "4vx8d",
      "latitude": "40.039009",
      "longitude": "-76.305901",
      "name": "Lancaster Second Group for Sanders",
      "start_day": "2015-07-29",
      "start_dt": "2015-07-29 19:00:00",
      "start_time": "19:00:00",
      "venue_zip": "17603",
      "bernieID": 1751
    },
    {
      "attendee_count": 6,
      "capacity": "35",
      "id": "1994",
      "id_obfuscated": "4jjjb",
      "latitude": "42.051243",
      "longitude": "-86.165787",
      "name": "7/29/2015 7 p.m. ET in Dowagiac, MI at Bootie & Franto's house",
      "start_day": "2015-07-29",
      "start_dt": "2015-07-29 19:00:00",
      "start_time": "19:00:00",
      "venue_zip": "49047",
      "bernieID": 1752
    },
    {
      "attendee_count": 21,
      "capacity": "25",
      "id": "2762",
      "id_obfuscated": "4v79v",
      "latitude": "41.876945",
      "longitude": "-87.811920",
      "name": "Forest Parkers & Friends for Bernie",
      "start_day": "2015-07-29",
      "start_dt": "2015-07-29 18:00:00",
      "start_time": "18:00:00",
      "venue_zip": "60130",
      "bernieID": 1753
    },
    {
      "attendee_count": 14,
      "capacity": "20",
      "id": "3274",
      "id_obfuscated": "4vxlr",
      "latitude": "38.817600",
      "longitude": "-81.710655",
      "name": "Ripley, West Virginia for Bernie",
      "start_day": "2015-07-29",
      "start_dt": "2015-07-29 19:00:00",
      "start_time": "19:00:00",
      "venue_zip": "25271",
      "bernieID": 1754
    },
    {
      "attendee_count": 7,
      "capacity": "0",
      "id": "3530",
      "id_obfuscated": "4vx82",
      "latitude": "47.630402",
      "longitude": "-122.525002",
      "name": "Hear Bernie Sanders with your neighbors at GROW COMMUNITY",
      "start_day": "2015-07-29",
      "start_dt": "2015-07-29 19:00:00",
      "start_time": "19:00:00",
      "venue_zip": "98110",
      "bernieID": 1755
    },
    {
      "attendee_count": 43,
      "capacity": "0",
      "id": "459",
      "id_obfuscated": "wrlj",
      "latitude": "38.199673",
      "longitude": "-84.558800",
      "name": "Feel the Bern!: Central Kentuckians for Bernie Sanders in 2016",
      "start_day": "2015-07-29",
      "start_dt": "2015-07-29 19:00:00",
      "start_time": "19:00:00",
      "venue_zip": "40324",
      "bernieID": 1756
    },
    {
      "attendee_count": 3,
      "capacity": "80",
      "id": "1227",
      "id_obfuscated": "4jvr7",
      "latitude": "51.627460",
      "longitude": "-112.372795",
      "name": "Bernie's our guy!  Let's organize for Bernie at the Rumsey Town Hall",
      "start_day": "2015-07-29",
      "start_dt": "2015-07-29 19:00:00",
      "start_time": "19:00:00",
      "venue_zip": "95679",
      "bernieID": 1757
    },
    {
      "attendee_count": 54,
      "capacity": "75",
      "id": "2251",
      "id_obfuscated": "4v5hw",
      "latitude": "36.311638",
      "longitude": "-82.354729",
      "name": "Tri-Cities Tn/Va For Bernie Sanders Webcast Event",
      "start_day": "2015-07-29",
      "start_dt": "2015-07-29 19:00:00",
      "start_time": "19:00:00",
      "venue_zip": "37604",
      "bernieID": 1758
    },
    {
      "attendee_count": 2,
      "capacity": "20",
      "id": "3787",
      "id_obfuscated": "4vxxr",
      "latitude": "33.036652",
      "longitude": "-80.080734",
      "name": "Goose Creek - Feel the Bern",
      "start_day": "2015-07-29",
      "start_dt": "2015-07-29 19:00:00",
      "start_time": "19:00:00",
      "venue_zip": "29445",
      "bernieID": 1759
    },
    {
      "attendee_count": 25,
      "capacity": "35",
      "id": "716",
      "id_obfuscated": "w4h",
      "latitude": "38.934940",
      "longitude": "-95.201767",
      "name": "Lawrence, Kansas for Bernie Sanders",
      "start_day": "2015-07-29",
      "start_dt": "2015-07-29 18:00:00",
      "start_time": "18:00:00",
      "venue_zip": "66046",
      "bernieID": 1760
    },
    {
      "attendee_count": 50,
      "capacity": "50",
      "id": "972",
      "id_obfuscated": "w9b",
      "latitude": "38.443714",
      "longitude": "-78.886803",
      "name": "Shenandoah Valley for Bernie Kickoff",
      "start_day": "2015-07-29",
      "start_dt": "2015-07-29 19:00:00",
      "start_time": "19:00:00",
      "venue_zip": "22801",
      "bernieID": 1761
    },
    {
      "attendee_count": 90,
      "capacity": "90",
      "id": "1740",
      "id_obfuscated": "4jvzf",
      "latitude": "42.294594",
      "longitude": "-85.578354",
      "name": "Greater Kalamazoo Area Meetup",
      "start_day": "2015-07-29",
      "start_dt": "2015-07-29 19:00:00",
      "start_time": "19:00:00",
      "venue_zip": "49007",
      "bernieID": 1762
    },
    {
      "attendee_count": 14,
      "capacity": "16",
      "id": "1996",
      "id_obfuscated": "4jjjj",
      "latitude": "41.126598",
      "longitude": "-80.612198",
      "name": "Trumbull County for Bernie Sanders",
      "start_day": "2015-07-29",
      "start_dt": "2015-07-29 19:00:00",
      "start_time": "19:00:00",
      "venue_zip": "44505",
      "bernieID": 1763
    },
    {
      "attendee_count": 20,
      "capacity": "20",
      "id": "2252",
      "id_obfuscated": "4v5m5",
      "latitude": "30.278757",
      "longitude": "-97.770668",
      "name": "Bernie Sanders: Central Austin Meet Up",
      "start_day": "2015-07-29",
      "start_dt": "2015-07-29 19:00:00",
      "start_time": "19:00:00",
      "venue_zip": "78703",
      "bernieID": 1764
    },
    {
      "attendee_count": 63,
      "capacity": "0",
      "id": "3276",
      "id_obfuscated": "4vxgm",
      "latitude": "42.244614",
      "longitude": "-88.338036",
      "name": "NW/Crystal Lake Chicago for Bernie Sanders",
      "start_day": "2015-07-29",
      "start_dt": "2015-07-29 18:00:00",
      "start_time": "18:00:00",
      "venue_zip": "60014",
      "bernieID": 1765
    },
    {
      "attendee_count": 9,
      "capacity": "50",
      "id": "461",
      "id_obfuscated": "wrlb",
      "latitude": "37.694710",
      "longitude": "-75.719734",
      "name": "Accomack County for Bernie Sanders",
      "start_day": "2015-07-29",
      "start_dt": "2015-07-29 19:00:00",
      "start_time": "19:00:00",
      "venue_zip": "23418",
      "bernieID": 1766
    },
    {
      "attendee_count": 25,
      "capacity": "25",
      "id": "717",
      "id_obfuscated": "w45",
      "latitude": "40.697220",
      "longitude": "-73.992050",
      "name": "Brooklyn for Bernie",
      "start_day": "2015-07-29",
      "start_dt": "2015-07-29 19:00:00",
      "start_time": "19:00:00",
      "venue_zip": "11201",
      "bernieID": 1767
    },
    {
      "attendee_count": 69,
      "capacity": "90",
      "id": "973",
      "id_obfuscated": "w9s",
      "latitude": "42.338512",
      "longitude": "-89.052498",
      "name": "We Want Bernie",
      "start_day": "2015-07-29",
      "start_dt": "2015-07-29 18:00:00",
      "start_time": "18:00:00",
      "venue_zip": "61115",
      "bernieID": 1768
    },
    {
      "attendee_count": 30,
      "capacity": "30",
      "id": "1229",
      "id_obfuscated": "4jvrk",
      "latitude": "36.911278",
      "longitude": "-80.313110",
      "name": "Floyd County for Bernie Sanders for President",
      "start_day": "2015-07-29",
      "start_dt": "2015-07-29 19:00:00",
      "start_time": "19:00:00",
      "venue_zip": "24091",
      "bernieID": 1769
    },
    {
      "attendee_count": 9,
      "capacity": "16",
      "id": "2253",
      "id_obfuscated": "4v5m7",
      "latitude": "34.462078",
      "longitude": "-117.103333",
      "name": "Apple Valley Organizing Meeting",
      "start_day": "2015-07-29",
      "start_dt": "2015-07-29 19:00:00",
      "start_time": "19:00:00",
      "venue_zip": "92308",
      "bernieID": 1770
    },
    {
      "attendee_count": 11,
      "capacity": "25",
      "id": "3277",
      "id_obfuscated": "4vxgh",
      "latitude": "38.992748",
      "longitude": "-77.009583",
      "name": "Takoma/Park for Bernie",
      "start_day": "2015-07-29",
      "start_dt": "2015-07-29 19:00:00",
      "start_time": "19:00:00",
      "venue_zip": "20910",
      "bernieID": 1771
    },
    {
      "attendee_count": 0,
      "capacity": "30",
      "id": "3533",
      "id_obfuscated": "4vx8b",
      "latitude": "42.836220",
      "longitude": "-71.660606",
      "name": "Bernie Sanders for President, Souhegan Chapter",
      "start_day": "2015-07-29",
      "start_dt": "2015-07-29 19:00:00",
      "start_time": "19:00:00",
      "venue_zip": "03055",
      "bernieID": 1772
    },
    {
      "attendee_count": 144,
      "capacity": "175",
      "id": "462",
      "id_obfuscated": "wrlg",
      "latitude": "37.129871",
      "longitude": "-93.296509",
      "name": "SWMO for Bernie",
      "start_day": "2015-07-29",
      "start_dt": "2015-07-29 18:00:00",
      "start_time": "18:00:00",
      "venue_zip": "65810",
      "bernieID": 1773
    },
    {
      "attendee_count": 29,
      "capacity": "32",
      "id": "1230",
      "id_obfuscated": "4jvrz",
      "latitude": "44.955475",
      "longitude": "-72.219193",
      "name": "Newport,Vt Bernie House Party",
      "start_day": "2015-07-29",
      "start_dt": "2015-07-29 19:00:00",
      "start_time": "19:00:00",
      "venue_zip": "05855",
      "bernieID": 1774
    },
    {
      "attendee_count": 34,
      "capacity": "0",
      "id": "2510",
      "id_obfuscated": "4v74y",
      "latitude": "43.163532",
      "longitude": "-73.073006",
      "name": "Manchester Dinner Party for President Bernie",
      "start_day": "2015-07-29",
      "start_dt": "2015-07-29 19:00:00",
      "start_time": "19:00:00",
      "venue_zip": "05254",
      "bernieID": 1775
    },
    {
      "attendee_count": 17,
      "capacity": "20",
      "id": "463",
      "id_obfuscated": "wrll",
      "latitude": "41.450569",
      "longitude": "-72.982498",
      "name": "Bethany for Bernie!",
      "start_day": "2015-07-29",
      "start_dt": "2015-07-29 19:00:00",
      "start_time": "19:00:00",
      "venue_zip": "06524",
      "bernieID": 1776
    },
    {
      "attendee_count": 170,
      "capacity": "170",
      "id": "719",
      "id_obfuscated": "w4m",
      "latitude": "38.886833",
      "longitude": "-77.242996",
      "name": "Northern Virginia for Bernie - Organizing Kickoff Party",
      "start_day": "2015-07-29",
      "start_dt": "2015-07-29 19:00:00",
      "start_time": "19:00:00",
      "venue_zip": "22180",
      "bernieID": 1777
    },
    {
      "attendee_count": 9,
      "capacity": "9",
      "id": "975",
      "id_obfuscated": "w9q",
      "latitude": "42.324848",
      "longitude": "-71.109383",
      "name": "Jamaica Plain meeting for Bernie Sanders",
      "start_day": "2015-07-29",
      "start_dt": "2015-07-29 19:00:00",
      "start_time": "19:00:00",
      "venue_zip": "02130",
      "bernieID": 1778
    },
    {
      "attendee_count": 60,
      "capacity": "60",
      "id": "1743",
      "id_obfuscated": "4jvzz",
      "latitude": "26.076204",
      "longitude": "-80.252052",
      "name": "Broward Wants Bernie Organizing Meeting",
      "start_day": "2015-07-29",
      "start_dt": "2015-07-29 19:00:00",
      "start_time": "19:00:00",
      "venue_zip": "33328",
      "bernieID": 1779
    },
    {
      "attendee_count": 102,
      "capacity": "125",
      "id": "2767",
      "id_obfuscated": "4v72x",
      "latitude": "43.071106",
      "longitude": "-87.900932",
      "name": "MILWAUKEE - RIVERWEST COMMUNITY",
      "start_day": "2015-07-29",
      "start_dt": "2015-07-29 18:00:00",
      "start_time": "18:00:00",
      "venue_zip": "53212",
      "bernieID": 1780
    },
    {
      "attendee_count": 30,
      "capacity": "30",
      "id": "464",
      "id_obfuscated": "wrgl",
      "latitude": "45.573917",
      "longitude": "-122.855347",
      "name": "Bethany Area  Bernie Supporters",
      "start_day": "2015-07-29",
      "start_dt": "2015-07-29 19:00:00",
      "start_time": "19:00:00",
      "venue_zip": "97229",
      "bernieID": 1781
    },
    {
      "attendee_count": 25,
      "capacity": "25",
      "id": "976",
      "id_obfuscated": "w2q",
      "latitude": "43.053452",
      "longitude": "-89.435921",
      "name": "Creating Community to Heal our Country",
      "start_day": "2015-07-29",
      "start_dt": "2015-07-29 19:00:00",
      "start_time": "19:00:00",
      "venue_zip": "53711",
      "bernieID": 1782
    },
    {
      "attendee_count": 104,
      "capacity": "120",
      "id": "1488",
      "id_obfuscated": "4jvp8",
      "latitude": "40.713570",
      "longitude": "-73.258202",
      "name": "Feel the Bern in West Islip",
      "start_day": "2015-07-29",
      "start_dt": "2015-07-29 19:00:00",
      "start_time": "19:00:00",
      "venue_zip": "11718",
      "bernieID": 1783
    },
    {
      "attendee_count": 16,
      "capacity": "50",
      "id": "1233",
      "id_obfuscated": "4jvvw",
      "latitude": "44.621567",
      "longitude": "-86.229370",
      "name": "We Need Bernie!",
      "start_day": "2015-07-29",
      "start_dt": "2015-07-29 19:00:00",
      "start_time": "19:00:00",
      "venue_zip": "49628",
      "bernieID": 1784
    },
    {
      "attendee_count": 0,
      "capacity": "10",
      "id": "3793",
      "id_obfuscated": "4vxxl",
      "latitude": "38.923626",
      "longitude": "-77.075706",
      "name": "Glover Park for Bernie Sanders - Organizing Meetup",
      "start_day": "2015-07-29",
      "start_dt": "2015-07-29 19:00:00",
      "start_time": "19:00:00",
      "venue_zip": "20007",
      "bernieID": 1785
    },
    {
      "attendee_count": 20,
      "capacity": "20",
      "id": "1234",
      "id_obfuscated": "4jvv4",
      "latitude": "42.059422",
      "longitude": "-89.325356",
      "name": "Oregon, IL Bernie Sanders - Be Part of the Grassroots Support Event",
      "start_day": "2015-07-29",
      "start_dt": "2015-07-29 18:00:00",
      "start_time": "18:00:00",
      "venue_zip": "61061",
      "bernieID": 1786
    },
    {
      "attendee_count": 23,
      "capacity": "25",
      "id": "1490",
      "id_obfuscated": "4jvpc",
      "latitude": "42.343918",
      "longitude": "-71.241417",
      "name": "Bernie Sanders Campaign Kickoff in Newton",
      "start_day": "2015-07-29",
      "start_dt": "2015-07-29 19:00:00",
      "start_time": "19:00:00",
      "venue_zip": "02466",
      "bernieID": 1787
    },
    {
      "attendee_count": 20,
      "capacity": "0",
      "id": "2002",
      "id_obfuscated": "4jjjf",
      "latitude": "44.370785",
      "longitude": "-70.504677",
      "name": "West Paris Organizing Meeting for Bernie Sanders 2016",
      "start_day": "2015-07-29",
      "start_dt": "2015-07-29 19:00:00",
      "start_time": "19:00:00",
      "venue_zip": "04289",
      "bernieID": 1788
    },
    {
      "attendee_count": 9,
      "capacity": "10",
      "id": "2770",
      "id_obfuscated": "4v79s",
      "latitude": "39.902016",
      "longitude": "-75.329544",
      "name": "Rutledge organizing meeting",
      "start_day": "2015-07-29",
      "start_dt": "2015-07-29 19:00:00",
      "start_time": "19:00:00",
      "venue_zip": "19070",
      "bernieID": 1789
    },
    {
      "attendee_count": 12,
      "capacity": "12",
      "id": "723",
      "id_obfuscated": "ww3",
      "latitude": "30.431273",
      "longitude": "-91.158287",
      "name": "Organize BR for Bernie",
      "start_day": "2015-07-29",
      "start_dt": "2015-07-29 18:00:00",
      "start_time": "18:00:00",
      "venue_zip": "70808",
      "bernieID": 1790
    },
    {
      "attendee_count": 40,
      "capacity": "40",
      "id": "979",
      "id_obfuscated": "w2l",
      "latitude": "37.689896",
      "longitude": "-97.328888",
      "name": "Old Town Meet-Up for Bernie Sanders",
      "start_day": "2015-07-29",
      "start_dt": "2015-07-29 18:00:00",
      "start_time": "18:00:00",
      "venue_zip": "67202",
      "bernieID": 1791
    },
    {
      "attendee_count": 36,
      "capacity": "80",
      "id": "1747",
      "id_obfuscated": "4jv34",
      "latitude": "42.698605",
      "longitude": "-73.207466",
      "name": "Williamstown Organizing Rally for Bernie Sanders",
      "start_day": "2015-07-29",
      "start_dt": "2015-07-29 19:00:00",
      "start_time": "19:00:00",
      "venue_zip": "01267",
      "bernieID": 1792
    },
    {
      "attendee_count": 31,
      "capacity": "60",
      "id": "2003",
      "id_obfuscated": "4jjjc",
      "latitude": "43.381550",
      "longitude": "-70.546143",
      "name": "Kennebunk Bernie Rallye",
      "start_day": "2015-07-29",
      "start_dt": "2015-07-29 19:00:00",
      "start_time": "19:00:00",
      "venue_zip": "04043",
      "bernieID": 1793
    },
    {
      "attendee_count": 30,
      "capacity": "30",
      "id": "2771",
      "id_obfuscated": "4v79p",
      "latitude": "40.878136",
      "longitude": "-73.917404",
      "name": "Riverdale for Bernie!",
      "start_day": "2015-07-29",
      "start_dt": "2015-07-29 19:00:00",
      "start_time": "19:00:00",
      "venue_zip": "10463",
      "bernieID": 1794
    },
    {
      "attendee_count": 15,
      "capacity": "15",
      "id": "980",
      "id_obfuscated": "w2y",
      "latitude": "35.133415",
      "longitude": "-106.561920",
      "name": "ABQ For Bernie Sanders!",
      "start_day": "2015-07-29",
      "start_dt": "2015-07-29 17:00:00",
      "start_time": "17:00:00",
      "venue_zip": "87109",
      "bernieID": 1795
    },
    {
      "attendee_count": 15,
      "capacity": "15",
      "id": "2004",
      "id_obfuscated": "4jjjp",
      "latitude": "27.501196",
      "longitude": "-82.605736",
      "name": "Building Bernie Brigade in Bradenton",
      "start_day": "2015-07-29",
      "start_dt": "2015-07-29 19:00:00",
      "start_time": "19:00:00",
      "venue_zip": "34209",
      "bernieID": 1796
    },
    {
      "attendee_count": 59,
      "capacity": "120",
      "id": "2260",
      "id_obfuscated": "4v5h4",
      "latitude": "39.157284",
      "longitude": "-84.516258",
      "name": "Clifton Go Bernie!",
      "start_day": "2015-07-29",
      "start_dt": "2015-07-29 19:00:00",
      "start_time": "19:00:00",
      "venue_zip": "45220",
      "bernieID": 1797
    },
    {
      "attendee_count": 2,
      "capacity": "20",
      "id": "2772",
      "id_obfuscated": "4v79w",
      "latitude": "30.212067",
      "longitude": "-95.473320",
      "name": "The Woodlands - Win Bernie Win",
      "start_day": "2015-07-29",
      "start_dt": "2015-07-29 18:00:00",
      "start_time": "18:00:00",
      "venue_zip": "77384",
      "bernieID": 1798
    },
    {
      "attendee_count": 25,
      "capacity": "25",
      "id": "469",
      "id_obfuscated": "wrgy",
      "latitude": "41.498676",
      "longitude": "-81.544075",
      "name": "Organize the Heights for Bernie!",
      "start_day": "2015-07-29",
      "start_dt": "2015-07-29 19:00:00",
      "start_time": "19:00:00",
      "venue_zip": "44118",
      "bernieID": 1799
    },
    {
      "attendee_count": 20,
      "capacity": "20",
      "id": "725",
      "id_obfuscated": "w4t",
      "latitude": "39.904640",
      "longitude": "-75.373383",
      "name": "Wallingford gets ready for Bernie!",
      "start_day": "2015-07-29",
      "start_dt": "2015-07-29 19:00:00",
      "start_time": "19:00:00",
      "venue_zip": "19086",
      "bernieID": 1800
    }
  ]
}