{
  "results": [
    {
      "attendee_count": 30,
      "capacity": "32",
      "id": "1749",
      "id_obfuscated": "4jvzx",
      "latitude": "29.919041",
      "longitude": "-95.181503",
      "name": "North Channel/East Harris County for Bernie!",
      "start_day": "2015-07-29",
      "start_dt": "2015-07-29 18:00:00",
      "start_time": "18:00:00",
      "venue_zip": "77044",
      "bernieID": 1801
    },
    {
      "attendee_count": 82,
      "capacity": "100",
      "id": "2005",
      "id_obfuscated": "4jjjy",
      "latitude": "29.108837",
      "longitude": "-82.006157",
      "name": "Silver Springs Community Center Bernie Sanders for President Organizing Event",
      "start_day": "2015-07-29",
      "start_dt": "2015-07-29 19:00:00",
      "start_time": "19:00:00",
      "venue_zip": "34472",
      "bernieID": 1802
    },
    {
      "attendee_count": 20,
      "capacity": "0",
      "id": "2261",
      "id_obfuscated": "4v5hg",
      "latitude": "36.407047",
      "longitude": "-105.572876",
      "name": "Taos for Bernie",
      "start_day": "2015-07-29",
      "start_dt": "2015-07-29 17:00:00",
      "start_time": "17:00:00",
      "venue_zip": "87571",
      "bernieID": 1803
    },
    {
      "attendee_count": 20,
      "capacity": "20",
      "id": "2773",
      "id_obfuscated": "4v794",
      "latitude": "42.142056",
      "longitude": "-70.867157",
      "name": "Bernie Barn Burner",
      "start_day": "2015-07-29",
      "start_dt": "2015-07-29 19:00:00",
      "start_time": "19:00:00",
      "venue_zip": "02339",
      "bernieID": 1804
    },
    {
      "attendee_count": 25,
      "capacity": "25",
      "id": "2006",
      "id_obfuscated": "4jjjd",
      "latitude": "37.799908",
      "longitude": "-122.413383",
      "name": "North Beach Bernie organizing meeting",
      "start_day": "2015-07-29",
      "start_dt": "2015-07-29 19:00:00",
      "start_time": "19:00:00",
      "venue_zip": "94133",
      "bernieID": 1805
    },
    {
      "attendee_count": 15,
      "capacity": "18",
      "id": "983",
      "id_obfuscated": "w2p",
      "latitude": "40.641197",
      "longitude": "-73.962479",
      "name": "Ditmas Park \"Feel the Bern\" Kickoff Evening",
      "start_day": "2015-07-29",
      "start_dt": "2015-07-29 19:00:00",
      "start_time": "19:00:00",
      "venue_zip": "11226",
      "bernieID": 1806
    },
    {
      "attendee_count": 19,
      "capacity": "0",
      "id": "1239",
      "id_obfuscated": "4jvvv",
      "latitude": "38.064285",
      "longitude": "-97.345230",
      "name": "North Newton for Bernie",
      "start_day": "2015-07-29",
      "start_dt": "2015-07-29 18:00:00",
      "start_time": "18:00:00",
      "venue_zip": "67117",
      "bernieID": 1807
    },
    {
      "attendee_count": 30,
      "capacity": "30",
      "id": "2007",
      "id_obfuscated": "4jjj2",
      "latitude": "41.923275",
      "longitude": "-87.704102",
      "name": "Logan Square Organizing for Bernie",
      "start_day": "2015-07-29",
      "start_dt": "2015-07-29 18:00:00",
      "start_time": "18:00:00",
      "venue_zip": "60647",
      "bernieID": 1808
    },
    {
      "attendee_count": 5,
      "capacity": "20",
      "id": "2775",
      "id_obfuscated": "4v79l",
      "latitude": "37.476479",
      "longitude": "-108.457771",
      "name": "Organizing for Bernie in Montezuma County",
      "start_day": "2015-07-29",
      "start_dt": "2015-07-29 19:00:00",
      "start_time": "19:00:00",
      "venue_zip": "81323",
      "bernieID": 1809
    },
    {
      "attendee_count": 13,
      "capacity": "25",
      "id": "3543",
      "id_obfuscated": "4vx8k",
      "latitude": "44.286819",
      "longitude": "-73.079865",
      "name": "Hinesburg Neighbors for Bernie",
      "start_day": "2015-07-29",
      "start_dt": "2015-07-29 19:00:00",
      "start_time": "19:00:00",
      "venue_zip": "05461",
      "bernieID": 1810
    },
    {
      "attendee_count": 50,
      "capacity": "50",
      "id": "728",
      "id_obfuscated": "w4j",
      "latitude": "42.365906",
      "longitude": "-71.104599",
      "name": "Bernie Sanders Campaign Kickoff in Central Square, Cambridge",
      "start_day": "2015-07-29",
      "start_dt": "2015-07-29 19:00:00",
      "start_time": "19:00:00",
      "venue_zip": "02139",
      "bernieID": 1811
    },
    {
      "attendee_count": 29,
      "capacity": "0",
      "id": "2008",
      "id_obfuscated": "4jjjh",
      "latitude": "40.801998",
      "longitude": "-77.832901",
      "name": "PSU/State College for Bernie Sanders Grassroots Organizational Meeting",
      "start_day": "2015-07-29",
      "start_dt": "2015-07-29 19:00:00",
      "start_time": "19:00:00",
      "venue_zip": "16801",
      "bernieID": 1812
    },
    {
      "attendee_count": 14,
      "capacity": "16",
      "id": "3288",
      "id_obfuscated": "4vxl9",
      "latitude": "43.847942",
      "longitude": "-70.112564",
      "name": "Freeport Backs Bernie",
      "start_day": "2015-07-29",
      "start_dt": "2015-07-29 19:00:00",
      "start_time": "19:00:00",
      "venue_zip": "04032",
      "bernieID": 1813
    },
    {
      "attendee_count": 49,
      "capacity": "50",
      "id": "473",
      "id_obfuscated": "wrg8",
      "latitude": "44.333599",
      "longitude": "-74.137459",
      "name": "\"Bernie for America\"",
      "start_day": "2015-07-29",
      "start_dt": "2015-07-29 19:00:00",
      "start_time": "19:00:00",
      "venue_zip": "12983",
      "bernieID": 1814
    },
    {
      "attendee_count": 16,
      "capacity": "50",
      "id": "729",
      "id_obfuscated": "w4w",
      "latitude": "46.144100",
      "longitude": "-123.162407",
      "name": "I'm with Bernie!-Columbia County",
      "start_day": "2015-07-29",
      "start_dt": "2015-07-29 19:00:00",
      "start_time": "19:00:00",
      "venue_zip": "97016",
      "bernieID": 1815
    },
    {
      "attendee_count": 35,
      "capacity": "35",
      "id": "985",
      "id_obfuscated": "w2f",
      "latitude": "27.954201",
      "longitude": "-82.293808",
      "name": "Brandon Feels the Bern",
      "start_day": "2015-07-29",
      "start_dt": "2015-07-29 19:00:00",
      "start_time": "19:00:00",
      "venue_zip": "33510",
      "bernieID": 1816
    },
    {
      "attendee_count": 51,
      "capacity": "0",
      "id": "1497",
      "id_obfuscated": "4jvp7",
      "latitude": "41.044220",
      "longitude": "-83.649933",
      "name": "go bernie",
      "start_day": "2015-07-29",
      "start_dt": "2015-07-29 19:00:00",
      "start_time": "19:00:00",
      "venue_zip": "45840",
      "bernieID": 1817
    },
    {
      "attendee_count": 13,
      "capacity": "30",
      "id": "2777",
      "id_obfuscated": "4v79f",
      "latitude": "40.775318",
      "longitude": "-73.945625",
      "name": "Upper East Side - Columbia Students and Neighborhood Friends Meeting to Organize",
      "start_day": "2015-07-29",
      "start_dt": "2015-07-29 19:00:00",
      "start_time": "19:00:00",
      "venue_zip": "10028",
      "bernieID": 1818
    },
    {
      "attendee_count": 3,
      "capacity": "13",
      "id": "3289",
      "id_obfuscated": "4vxl8",
      "latitude": "38.996387",
      "longitude": "-77.030357",
      "name": "2nd Downtown Silver Spring Meeting",
      "start_day": "2015-07-29",
      "start_dt": "2015-07-29 19:00:00",
      "start_time": "19:00:00",
      "venue_zip": "20910",
      "bernieID": 1819
    },
    {
      "attendee_count": 35,
      "capacity": "0",
      "id": "3545",
      "id_obfuscated": "4vxfv",
      "latitude": "44.261795",
      "longitude": "-88.414368",
      "name": "Appleton feels the Bern",
      "start_day": "2015-07-29",
      "start_dt": "2015-07-29 18:00:00",
      "start_time": "18:00:00",
      "venue_zip": "54911",
      "bernieID": 1820
    },
    {
      "attendee_count": 20,
      "capacity": "20",
      "id": "730",
      "id_obfuscated": "w4r",
      "latitude": "40.153606",
      "longitude": "-74.867554",
      "name": "Levittowners for Bernie!",
      "start_day": "2015-07-29",
      "start_dt": "2015-07-29 19:00:00",
      "start_time": "19:00:00",
      "venue_zip": "19057",
      "bernieID": 1821
    },
    {
      "attendee_count": 61,
      "capacity": "70",
      "id": "1754",
      "id_obfuscated": "4jv3y",
      "latitude": "42.472721",
      "longitude": "-83.248650",
      "name": "Lawrence Technological University - Bernie 2016 Organizing Meeting",
      "start_day": "2015-07-29",
      "start_dt": "2015-07-29 19:00:00",
      "start_time": "19:00:00",
      "venue_zip": "48075",
      "bernieID": 1822
    },
    {
      "attendee_count": 33,
      "capacity": "100",
      "id": "2266",
      "id_obfuscated": "4v5hk",
      "latitude": "30.164396",
      "longitude": "-92.083656",
      "name": "Lafayette LA Bernie Sanders Organizing Meeting",
      "start_day": "2015-07-29",
      "start_dt": "2015-07-29 18:00:00",
      "start_time": "18:00:00",
      "venue_zip": "70503",
      "bernieID": 1823
    },
    {
      "attendee_count": 12,
      "capacity": "50",
      "id": "3546",
      "id_obfuscated": "4vxfj",
      "latitude": "41.764164",
      "longitude": "-72.731728",
      "name": "Call to (Loving) Arms for Our Connecticut-Wide Grassroots Campaign",
      "start_day": "2015-07-29",
      "start_dt": "2015-07-29 19:00:00",
      "start_time": "19:00:00",
      "venue_zip": "06119",
      "bernieID": 1824
    },
    {
      "attendee_count": 16,
      "capacity": "16",
      "id": "731",
      "id_obfuscated": "w4v",
      "latitude": "42.392372",
      "longitude": "-71.249443",
      "name": "Organizing for Bernie in Waltham",
      "start_day": "2015-07-29",
      "start_dt": "2015-07-29 19:00:00",
      "start_time": "19:00:00",
      "venue_zip": "02451",
      "bernieID": 1825
    },
    {
      "attendee_count": 21,
      "capacity": "75",
      "id": "476",
      "id_obfuscated": "wrgk",
      "latitude": "31.618750",
      "longitude": "-97.100052",
      "name": "Waco Area Bernie Sanders Presidential Campaign Organizational Meeting",
      "start_day": "2015-07-29",
      "start_dt": "2015-07-29 17:00:00",
      "start_time": "17:00:00",
      "venue_zip": "76705",
      "bernieID": 1826
    },
    {
      "attendee_count": 72,
      "capacity": "0",
      "id": "732",
      "id_obfuscated": "w4l",
      "latitude": "34.689838",
      "longitude": "-86.592094",
      "name": "#BernieYall Huntsville AL for Bernie House Party now at Straight to Ale",
      "start_day": "2015-07-29",
      "start_dt": "2015-07-29 18:00:00",
      "start_time": "18:00:00",
      "venue_zip": "35810",
      "bernieID": 1827
    },
    {
      "attendee_count": 32,
      "capacity": "37",
      "id": "988",
      "id_obfuscated": "w2z",
      "latitude": "30.538897",
      "longitude": "-90.207123",
      "name": "Bernie Sanders Campaign Organizing Event, Covington, LA",
      "start_day": "2015-07-29",
      "start_dt": "2015-07-29 18:00:00",
      "start_time": "18:00:00",
      "venue_zip": "70435",
      "bernieID": 1828
    },
    {
      "attendee_count": 1,
      "capacity": "0",
      "id": "3804",
      "id_obfuscated": "4vxxs",
      "latitude": "42.424400",
      "longitude": "-71.457245",
      "name": "Massachusetts for Bernie Maynard Kickoff",
      "start_day": "2015-07-29",
      "start_dt": "2015-07-29 19:00:00",
      "start_time": "19:00:00",
      "venue_zip": "01754",
      "bernieID": 1829
    },
    {
      "attendee_count": 20,
      "capacity": "20",
      "id": "2269",
      "id_obfuscated": "4v5h2",
      "latitude": "30.058033",
      "longitude": "-95.561523",
      "name": "Gleannloch Farms/Spring organizer",
      "start_day": "2015-07-29",
      "start_dt": "2015-07-29 19:00:00",
      "start_time": "19:00:00",
      "venue_zip": "77379",
      "bernieID": 1830
    },
    {
      "attendee_count": 10,
      "capacity": "30",
      "id": "3293",
      "id_obfuscated": "4vxly",
      "latitude": "44.530609",
      "longitude": "-89.585777",
      "name": "UW-Stevens Point for Bernie Sanders, Meet up Downtown at Brick House! All Welcome!",
      "start_day": "2015-07-29",
      "start_dt": "2015-07-29 18:00:00",
      "start_time": "18:00:00",
      "venue_zip": "54481",
      "bernieID": 1831
    },
    {
      "attendee_count": 6,
      "capacity": "6",
      "id": "990",
      "id_obfuscated": "w2c",
      "latitude": "40.147072",
      "longitude": "-75.453461",
      "name": "collegeville ps organizing meeting",
      "start_day": "2015-07-29",
      "start_dt": "2015-07-29 19:00:00",
      "start_time": "19:00:00",
      "venue_zip": "19426",
      "bernieID": 1832
    },
    {
      "attendee_count": 15,
      "capacity": "15",
      "id": "1758",
      "id_obfuscated": "4jv3q",
      "latitude": "41.075436",
      "longitude": "-74.804489",
      "name": "Newton & Northwest NJ",
      "start_day": "2015-07-29",
      "start_dt": "2015-07-29 19:00:00",
      "start_time": "19:00:00",
      "venue_zip": "07860",
      "bernieID": 1833
    },
    {
      "attendee_count": 10,
      "capacity": "0",
      "id": "3294",
      "id_obfuscated": "4vxld",
      "latitude": "39.914200",
      "longitude": "-86.074112",
      "name": "Castleton/Fishers for Bernie @ Ale Emporium",
      "start_day": "2015-07-29",
      "start_dt": "2015-07-29 19:00:00",
      "start_time": "19:00:00",
      "venue_zip": "46250",
      "bernieID": 1834
    },
    {
      "attendee_count": 22,
      "capacity": "0",
      "id": "3550",
      "id_obfuscated": "4vx8x",
      "latitude": "29.023874",
      "longitude": "-80.920166",
      "name": "New Smyrnans For Bernie",
      "start_day": "2015-07-29",
      "start_dt": "2015-07-29 19:00:00",
      "start_time": "19:00:00",
      "venue_zip": "32169",
      "bernieID": 1835
    },
    {
      "attendee_count": 43,
      "capacity": "0",
      "id": "479",
      "id_obfuscated": "wrgc",
      "latitude": "37.810726",
      "longitude": "-122.257751",
      "name": "Oakland District 3 Bernie Sanders for President Organizing Meeting",
      "start_day": "2015-07-29",
      "start_dt": "2015-07-29 19:00:00",
      "start_time": "19:00:00",
      "venue_zip": "94610",
      "bernieID": 1836
    },
    {
      "attendee_count": 29,
      "capacity": "0",
      "id": "735",
      "id_obfuscated": "w4g",
      "latitude": "42.526482",
      "longitude": "-71.113976",
      "name": "Reading MA Bernie Believers",
      "start_day": "2015-07-29",
      "start_dt": "2015-07-29 19:00:00",
      "start_time": "19:00:00",
      "venue_zip": "01867",
      "bernieID": 1837
    },
    {
      "attendee_count": 30,
      "capacity": "30",
      "id": "1503",
      "id_obfuscated": "4jvph",
      "latitude": "38.939800",
      "longitude": "-77.167702",
      "name": "Bernie Organizing Event in McLean, VA",
      "start_day": "2015-07-29",
      "start_dt": "2015-07-29 19:00:00",
      "start_time": "19:00:00",
      "venue_zip": "22101",
      "bernieID": 1838
    },
    {
      "attendee_count": 16,
      "capacity": "20",
      "id": "1759",
      "id_obfuscated": "4jv3b",
      "latitude": "43.621826",
      "longitude": "-84.248871",
      "name": "Bernie Sanders for President, Midland, Michigan Organizing Meeting",
      "start_day": "2015-07-29",
      "start_dt": "2015-07-29 19:00:00",
      "start_time": "19:00:00",
      "venue_zip": "48640",
      "bernieID": 1839
    },
    {
      "attendee_count": 16,
      "capacity": "16",
      "id": "2527",
      "id_obfuscated": "4v7gv",
      "latitude": "41.526764",
      "longitude": "-88.105408",
      "name": "Joliet Progressives for Bernie",
      "start_day": "2015-07-29",
      "start_dt": "2015-07-29 18:00:00",
      "start_time": "18:00:00",
      "venue_zip": "60435",
      "bernieID": 1840
    },
    {
      "attendee_count": 21,
      "capacity": "30",
      "id": "2783",
      "id_obfuscated": "4v799",
      "latitude": "44.388508",
      "longitude": "-68.213928",
      "name": "Bar Harbor for Bernie",
      "start_day": "2015-07-29",
      "start_dt": "2015-07-29 19:00:00",
      "start_time": "19:00:00",
      "venue_zip": "04609",
      "bernieID": 1841
    },
    {
      "attendee_count": 0,
      "capacity": "16",
      "id": "3807",
      "id_obfuscated": "4vxxd",
      "latitude": "43.680168",
      "longitude": "-70.310806",
      "name": "Families of Cumberland County Support Bernie Sanders",
      "start_day": "2015-07-29",
      "start_dt": "2015-07-29 19:00:00",
      "start_time": "19:00:00",
      "venue_zip": "04102",
      "bernieID": 1842
    },
    {
      "attendee_count": 5,
      "capacity": "8",
      "id": "480",
      "id_obfuscated": "wrqr",
      "latitude": "38.137489",
      "longitude": "-120.452377",
      "name": "Murphys Voters for Bernie",
      "start_day": "2015-07-29",
      "start_dt": "2015-07-29 19:00:00",
      "start_time": "19:00:00",
      "venue_zip": "95247",
      "bernieID": 1843
    },
    {
      "attendee_count": 20,
      "capacity": "20",
      "id": "1248",
      "id_obfuscated": "4jvvk",
      "latitude": "39.367455",
      "longitude": "-76.734505",
      "name": "Bernie Campaign Organizing Event in Pikesville MD",
      "start_day": "2015-07-29",
      "start_dt": "2015-07-29 19:00:00",
      "start_time": "19:00:00",
      "venue_zip": "21208",
      "bernieID": 1844
    },
    {
      "attendee_count": 8,
      "capacity": "8",
      "id": "2016",
      "id_obfuscated": "4jjww",
      "latitude": "40.158924",
      "longitude": "-77.137207",
      "name": "Boiling Springs Bernie Sanders meeting",
      "start_day": "2015-07-29",
      "start_dt": "2015-07-29 19:00:00",
      "start_time": "19:00:00",
      "venue_zip": "17007",
      "bernieID": 1845
    },
    {
      "attendee_count": 50,
      "capacity": "50",
      "id": "2528",
      "id_obfuscated": "4v7gp",
      "latitude": "46.551964",
      "longitude": "-87.382904",
      "name": "People of Marquette, Michigan in Support of Bernie Sanders for President",
      "start_day": "2015-07-29",
      "start_dt": "2015-07-29 19:00:00",
      "start_time": "19:00:00",
      "venue_zip": "49855",
      "bernieID": 1846
    },
    {
      "attendee_count": 11,
      "capacity": "20",
      "id": "3296",
      "id_obfuscated": "4vxlh",
      "latitude": "42.898232",
      "longitude": "-97.379982",
      "name": "Yankton For Bernie",
      "start_day": "2015-07-29",
      "start_dt": "2015-07-29 18:00:00",
      "start_time": "18:00:00",
      "venue_zip": "57078",
      "bernieID": 1847
    },
    {
      "attendee_count": 1,
      "capacity": "10",
      "id": "3808",
      "id_obfuscated": "4vxxm",
      "latitude": "44.948551",
      "longitude": "-93.377083",
      "name": "Let's Help Bernie Organize",
      "start_day": "2015-07-29",
      "start_dt": "2015-07-29 18:00:00",
      "start_time": "18:00:00",
      "venue_zip": "55426",
      "bernieID": 1848
    },
    {
      "attendee_count": 10,
      "capacity": "10",
      "id": "1761",
      "id_obfuscated": "4jv3k",
      "latitude": "44.421215",
      "longitude": "-72.023811",
      "name": "St. J. for Bernie",
      "start_day": "2015-07-29",
      "start_dt": "2015-07-29 19:00:00",
      "start_time": "19:00:00",
      "venue_zip": "05819",
      "bernieID": 1849
    },
    {
      "attendee_count": 8,
      "capacity": "15",
      "id": "2273",
      "id_obfuscated": "4v5hx",
      "latitude": "34.672478",
      "longitude": "-92.428513",
      "name": "Otter Creek Organizing Kickoff",
      "start_day": "2015-07-29",
      "start_dt": "2015-07-29 18:00:00",
      "start_time": "18:00:00",
      "venue_zip": "72210",
      "bernieID": 1850
    },
    {
      "attendee_count": 82,
      "capacity": "0",
      "id": "2785",
      "id_obfuscated": "4v797",
      "latitude": "44.985298",
      "longitude": "-93.257462",
      "name": "NE Minneapolis for Bernie",
      "start_day": "2015-07-29",
      "start_dt": "2015-07-29 18:00:00",
      "start_time": "18:00:00",
      "venue_zip": "55414",
      "bernieID": 1851
    },
    {
      "attendee_count": 6,
      "capacity": "20",
      "id": "3297",
      "id_obfuscated": "4vxl5",
      "latitude": "40.737099",
      "longitude": "-74.029877",
      "name": "'Boken for Bernie",
      "start_day": "2015-07-29",
      "start_dt": "2015-07-29 19:00:00",
      "start_time": "19:00:00",
      "venue_zip": "07030",
      "bernieID": 1852
    },
    {
      "attendee_count": 40,
      "capacity": "40",
      "id": "994",
      "id_obfuscated": "w8t",
      "latitude": "44.308537",
      "longitude": "-71.756042",
      "name": "Littleton, NH Bernie Sanders Organizing Kickoff Meeting",
      "start_day": "2015-07-29",
      "start_dt": "2015-07-29 19:00:00",
      "start_time": "19:00:00",
      "venue_zip": "03561",
      "bernieID": 1853
    },
    {
      "attendee_count": 50,
      "capacity": "0",
      "id": "2018",
      "id_obfuscated": "4jjwg",
      "latitude": "34.689838",
      "longitude": "-86.592094",
      "name": "#BernieYall Huntsville AL for Bernie House Party now at Straight to Ale",
      "start_day": "2015-07-29",
      "start_dt": "2015-07-29 18:00:00",
      "start_time": "18:00:00",
      "venue_zip": "35801",
      "bernieID": 1854
    },
    {
      "attendee_count": 3,
      "capacity": "12",
      "id": "3554",
      "id_obfuscated": "4vxfp",
      "latitude": "34.835697",
      "longitude": "-92.224632",
      "name": "Sherwood (incl. NLR/Jacksonville area) Organizing Meeting",
      "start_day": "2015-07-29",
      "start_dt": "2015-07-29 18:00:00",
      "start_time": "18:00:00",
      "venue_zip": "72120",
      "bernieID": 1855
    },
    {
      "attendee_count": 174,
      "capacity": "200",
      "id": "227",
      "id_obfuscated": "w72",
      "latitude": "38.784931",
      "longitude": "-90.497841",
      "name": "St. Charles County Missouri Organizing Meeting",
      "start_day": "2015-07-29",
      "start_dt": "2015-07-29 18:00:00",
      "start_time": "18:00:00",
      "venue_zip": "63301",
      "bernieID": 1856
    },
    {
      "attendee_count": 45,
      "capacity": "45",
      "id": "739",
      "id_obfuscated": "wg9",
      "latitude": "43.249027",
      "longitude": "-73.094475",
      "name": "Northshire Supporters of Bernie for President",
      "start_day": "2015-07-29",
      "start_dt": "2015-07-29 19:00:00",
      "start_time": "19:00:00",
      "venue_zip": "05251",
      "bernieID": 1857
    },
    {
      "attendee_count": 25,
      "capacity": "25",
      "id": "995",
      "id_obfuscated": "w8r",
      "latitude": "40.681087",
      "longitude": "-73.972237",
      "name": "Organizing Meet for Bernie Sanders 2016, Prospect Heights, Brooklyn, NY",
      "start_day": "2015-07-29",
      "start_dt": "2015-07-29 19:00:00",
      "start_time": "19:00:00",
      "venue_zip": "11217",
      "bernieID": 1858
    },
    {
      "attendee_count": 17,
      "capacity": "20",
      "id": "1763",
      "id_obfuscated": "4jv33",
      "latitude": "39.697239",
      "longitude": "-86.372505",
      "name": "Hendricks County Organizational Meeting",
      "start_day": "2015-07-29",
      "start_dt": "2015-07-29 19:00:00",
      "start_time": "19:00:00",
      "venue_zip": "46168",
      "bernieID": 1859
    },
    {
      "attendee_count": 2,
      "capacity": "0",
      "id": "2275",
      "id_obfuscated": "4v55r",
      "latitude": "44.045372",
      "longitude": "-95.437477",
      "name": "Get to know Bernie Sanders. Join me at my house in Westbrook, MN to view the video and talk about the real issues.",
      "start_day": "2015-07-29",
      "start_dt": "2015-07-29 19:00:00",
      "start_time": "19:00:00",
      "venue_zip": "56183",
      "bernieID": 1860
    },
    {
      "attendee_count": 8,
      "capacity": "0",
      "id": "3811",
      "id_obfuscated": "4vxx7",
      "latitude": "39.428230",
      "longitude": "-77.805046",
      "name": "Shepherdstown Organizing Kickoff for Bernie Sanders",
      "start_day": "2015-07-29",
      "start_dt": "2015-07-29 19:00:00",
      "start_time": "19:00:00",
      "venue_zip": "25443",
      "bernieID": 1861
    },
    {
      "attendee_count": 30,
      "capacity": "30",
      "id": "1508",
      "id_obfuscated": "4jvyr",
      "latitude": "38.936298",
      "longitude": "-77.062630",
      "name": "DC Friends of Charles Briody Gather to Hear Bernie's Presidential Platform",
      "start_day": "2015-07-29",
      "start_dt": "2015-07-29 19:00:00",
      "start_time": "19:00:00",
      "venue_zip": "20008",
      "bernieID": 1862
    },
    {
      "attendee_count": 13,
      "capacity": "20",
      "id": "2021",
      "id_obfuscated": "4jjwr",
      "latitude": "36.091076",
      "longitude": "-79.225861",
      "name": "27302 for Bernie",
      "start_day": "2015-07-29",
      "start_dt": "2015-07-29 19:00:00",
      "start_time": "19:00:00",
      "venue_zip": "27302",
      "bernieID": 1863
    },
    {
      "attendee_count": 4,
      "capacity": "0",
      "id": "3301",
      "id_obfuscated": "4vxlz",
      "latitude": "43.042973",
      "longitude": "-75.866547",
      "name": "Bernie supporters in Chittenango & CNY",
      "start_day": "2015-07-29",
      "start_dt": "2015-07-29 19:00:00",
      "start_time": "19:00:00",
      "venue_zip": "13037",
      "bernieID": 1864
    },
    {
      "attendee_count": 6,
      "capacity": "25",
      "id": "3557",
      "id_obfuscated": "4vxfg",
      "latitude": "38.964714",
      "longitude": "-95.242928",
      "name": "Bernie Live Broadcast Watch Party",
      "start_day": "2015-07-29",
      "start_dt": "2015-07-29 18:00:00",
      "start_time": "18:00:00",
      "venue_zip": "66044",
      "bernieID": 1865
    },
    {
      "attendee_count": 41,
      "capacity": "50",
      "id": "742",
      "id_obfuscated": "wgc",
      "latitude": "44.123924",
      "longitude": "-72.885056",
      "name": "Bernie 2016!  Mad River Valley Event",
      "start_day": "2015-07-29",
      "start_dt": "2015-07-29 19:00:00",
      "start_time": "19:00:00",
      "venue_zip": "05674",
      "bernieID": 1866
    },
    {
      "attendee_count": 8,
      "capacity": "0",
      "id": "3302",
      "id_obfuscated": "4vxl3",
      "latitude": "42.510410",
      "longitude": "-96.405052",
      "name": "Bernie 2016 Sioux City Organizing Meeting",
      "start_day": "2015-07-29",
      "start_dt": "2015-07-29 18:00:00",
      "start_time": "18:00:00",
      "venue_zip": "51104",
      "bernieID": 1867
    },
    {
      "attendee_count": 10,
      "capacity": "20",
      "id": "999",
      "id_obfuscated": "w84",
      "latitude": "38.712315",
      "longitude": "-91.117653",
      "name": "Bernie Sanders organization meeting in Warrenton MO",
      "start_day": "2015-07-29",
      "start_dt": "2015-07-29 19:00:00",
      "start_time": "19:00:00",
      "venue_zip": "63383",
      "bernieID": 1868
    },
    {
      "attendee_count": 54,
      "capacity": "150",
      "id": "1255",
      "id_obfuscated": "4jvvc",
      "latitude": "28.036900",
      "longitude": "-82.012177",
      "name": "Central Florida For Bernie Sanders at  Meadowbrook Clubhouse New Tampa Highway Lakeland, Florida",
      "start_day": "2015-07-29",
      "start_dt": "2015-07-29 19:00:00",
      "start_time": "19:00:00",
      "venue_zip": "33815",
      "bernieID": 1869
    },
    {
      "attendee_count": 15,
      "capacity": "15",
      "id": "1511",
      "id_obfuscated": "4jvyw",
      "latitude": "42.741615",
      "longitude": "-84.466423",
      "name": "East Lansing Bernie Meetup",
      "start_day": "2015-07-29",
      "start_dt": "2015-07-29 19:00:00",
      "start_time": "19:00:00",
      "venue_zip": "48823",
      "bernieID": 1870
    },
    {
      "attendee_count": 50,
      "capacity": "50",
      "id": "1767",
      "id_obfuscated": "4jv3f",
      "latitude": "41.080524",
      "longitude": "-73.549812",
      "name": "Stamford Organizing Meet and Video broadcast of Bernie Sanders",
      "start_day": "2015-07-29",
      "start_dt": "2015-07-29 19:00:00",
      "start_time": "19:00:00",
      "venue_zip": "06905",
      "bernieID": 1871
    },
    {
      "attendee_count": 30,
      "capacity": "30",
      "id": "2023",
      "id_obfuscated": "4jjwj",
      "latitude": "29.496536",
      "longitude": "-98.420410",
      "name": "North East San Antonio Organizing Meeting! 6PM!",
      "start_day": "2015-07-29",
      "start_dt": "2015-07-29 18:00:00",
      "start_time": "18:00:00",
      "venue_zip": "78218",
      "bernieID": 1872
    },
    {
      "attendee_count": 38,
      "capacity": "50",
      "id": "2535",
      "id_obfuscated": "4v7gs",
      "latitude": "39.287704",
      "longitude": "-76.634758",
      "name": "Organizing Meeting For Bernie Sanders at the Carriage House",
      "start_day": "2015-07-29",
      "start_dt": "2015-07-29 19:00:00",
      "start_time": "19:00:00",
      "venue_zip": "21201",
      "bernieID": 1873
    },
    {
      "attendee_count": 8,
      "capacity": "8",
      "id": "488",
      "id_obfuscated": "wrqb",
      "latitude": "42.905193",
      "longitude": "-85.687088",
      "name": "Wyoming, Michigan - Organizing for Bernie Sanders",
      "start_day": "2015-07-29",
      "start_dt": "2015-07-29 19:00:00",
      "start_time": "19:00:00",
      "venue_zip": "49509",
      "bernieID": 1874
    },
    {
      "attendee_count": 12,
      "capacity": "12",
      "id": "1256",
      "id_obfuscated": "4jvjt",
      "latitude": "26.140299",
      "longitude": "-80.255226",
      "name": "Central Broward for Bernie",
      "start_day": "2015-07-29",
      "start_dt": "2015-07-29 19:00:00",
      "start_time": "19:00:00",
      "venue_zip": "33322",
      "bernieID": 1875
    },
    {
      "attendee_count": 0,
      "capacity": "0",
      "id": "2280",
      "id_obfuscated": "4v55g",
      "latitude": "32.655399",
      "longitude": "-86.510300",
      "name": "Information",
      "start_day": "2015-07-29",
      "start_dt": "2015-07-29 18:00:00",
      "start_time": "18:00:00",
      "venue_zip": "36051",
      "bernieID": 1876
    },
    {
      "attendee_count": 142,
      "capacity": "200",
      "id": "2536",
      "id_obfuscated": "4v7gk",
      "latitude": "40.332306",
      "longitude": "-76.749809",
      "name": "Harrisburg Area For Senator Bernie Sanders Meetup",
      "start_day": "2015-07-29",
      "start_dt": "2015-07-29 19:00:00",
      "start_time": "19:00:00",
      "venue_zip": "17112",
      "bernieID": 1877
    },
    {
      "attendee_count": 37,
      "capacity": "50",
      "id": "3048",
      "id_obfuscated": "4v77c",
      "latitude": "30.163260",
      "longitude": "-81.372940",
      "name": "St Augustine for Bernie July 29",
      "start_day": "2015-07-29",
      "start_dt": "2015-07-29 19:00:00",
      "start_time": "19:00:00",
      "venue_zip": "32082",
      "bernieID": 1878
    },
    {
      "attendee_count": 0,
      "capacity": "18",
      "id": "3816",
      "id_obfuscated": "4jttj",
      "latitude": "35.907490",
      "longitude": "-78.991081",
      "name": "Pup Lovers for Bernie",
      "start_day": "2015-07-29",
      "start_dt": "2015-07-29 19:00:00",
      "start_time": "19:00:00",
      "venue_zip": "27517",
      "bernieID": 1879
    },
    {
      "attendee_count": 40,
      "capacity": "40",
      "id": "2025",
      "id_obfuscated": "4jjwd",
      "latitude": "38.667793",
      "longitude": "-90.353203",
      "name": "University City for Bernie Sanders",
      "start_day": "2015-07-29",
      "start_dt": "2015-07-29 18:00:00",
      "start_time": "18:00:00",
      "venue_zip": "63132",
      "bernieID": 1880
    },
    {
      "attendee_count": 80,
      "capacity": "80",
      "id": "2281",
      "id_obfuscated": "4v55l",
      "latitude": "38.934284",
      "longitude": "-77.363068",
      "name": "Reston (Hunter's Woods Community Center)",
      "start_day": "2015-07-29",
      "start_dt": "2015-07-29 19:00:00",
      "start_time": "19:00:00",
      "venue_zip": "20190",
      "bernieID": 1881
    },
    {
      "attendee_count": 20,
      "capacity": "20",
      "id": "2537",
      "id_obfuscated": "4v7gz",
      "latitude": "39.407333",
      "longitude": "-76.683350",
      "name": "Organizing meeting near Greenspring Station",
      "start_day": "2015-07-29",
      "start_dt": "2015-07-29 19:00:00",
      "start_time": "19:00:00",
      "venue_zip": "21208",
      "bernieID": 1882
    },
    {
      "attendee_count": 15,
      "capacity": "15",
      "id": "1002",
      "id_obfuscated": "4jrz8",
      "latitude": "39.777763",
      "longitude": "-89.731659",
      "name": "Intro to Bernie Spfld IL",
      "start_day": "2015-07-29",
      "start_dt": "2015-07-29 18:00:00",
      "start_time": "18:00:00",
      "venue_zip": "62711",
      "bernieID": 1883
    },
    {
      "attendee_count": 8,
      "capacity": "0",
      "id": "1258",
      "id_obfuscated": "4jvjv",
      "latitude": "41.112999",
      "longitude": "-79.734299",
      "name": "Meeting of the minds of western pa for bernie sanders",
      "start_day": "2015-07-29",
      "start_dt": "2015-07-29 19:00:00",
      "start_time": "19:00:00",
      "venue_zip": "16049",
      "bernieID": 1884
    },
    {
      "attendee_count": 42,
      "capacity": "55",
      "id": "2026",
      "id_obfuscated": "4jjw2",
      "latitude": "44.576740",
      "longitude": "-72.296021",
      "name": "Bernie Sanders Supporters in the Greensboro, Hardwick, Craftsbury, Walden, Woodbury area",
      "start_day": "2015-07-29",
      "start_dt": "2015-07-29 19:00:00",
      "start_time": "19:00:00",
      "venue_zip": "05841",
      "bernieID": 1885
    },
    {
      "attendee_count": 6,
      "capacity": "50",
      "id": "2282",
      "id_obfuscated": "4v55q",
      "latitude": "38.576908",
      "longitude": "-109.552719",
      "name": "July 29 Organizing Meeting at 5pm",
      "start_day": "2015-07-29",
      "start_dt": "2015-07-29 17:00:00",
      "start_time": "17:00:00",
      "venue_zip": "84532",
      "bernieID": 1886
    },
    {
      "attendee_count": 50,
      "capacity": "50",
      "id": "2794",
      "id_obfuscated": "4v78l",
      "latitude": "36.130993",
      "longitude": "-86.797508",
      "name": "Nashville for Bernie Campaign Gathering",
      "start_day": "2015-07-29",
      "start_dt": "2015-07-29 18:00:00",
      "start_time": "18:00:00",
      "venue_zip": "37212",
      "bernieID": 1887
    },
    {
      "attendee_count": 18,
      "capacity": "100",
      "id": "491",
      "id_obfuscated": "wrqq",
      "latitude": "42.553730",
      "longitude": "-88.493935",
      "name": "Walworth County Workers for Bernie 2016",
      "start_day": "2015-07-29",
      "start_dt": "2015-07-29 18:00:00",
      "start_time": "18:00:00",
      "venue_zip": "53147",
      "bernieID": 1888
    },
    {
      "attendee_count": 9,
      "capacity": "20",
      "id": "2027",
      "id_obfuscated": "4jjw9",
      "latitude": "38.038307",
      "longitude": "-78.446114",
      "name": "PanTop Charlottesville Gathering",
      "start_day": "2015-07-29",
      "start_dt": "2015-07-29 19:00:00",
      "start_time": "19:00:00",
      "venue_zip": "22911",
      "bernieID": 1889
    },
    {
      "attendee_count": 21,
      "capacity": "100",
      "id": "2795",
      "id_obfuscated": "4v78q",
      "latitude": "34.095760",
      "longitude": "-80.973579",
      "name": "How to elect Bernie strategy meeting",
      "start_day": "2015-07-29",
      "start_dt": "2015-07-29 19:00:00",
      "start_time": "19:00:00",
      "venue_zip": "29203",
      "bernieID": 1890
    },
    {
      "attendee_count": 7,
      "capacity": "30",
      "id": "3307",
      "id_obfuscated": "4vxql",
      "latitude": "34.623074",
      "longitude": "-117.855270",
      "name": "Antelope Valley for Bernie Sanders",
      "start_day": "2015-07-29",
      "start_dt": "2015-07-29 16:00:00",
      "start_time": "16:00:00",
      "venue_zip": "93535",
      "bernieID": 1891
    },
    {
      "attendee_count": 11,
      "capacity": "11",
      "id": "3563",
      "id_obfuscated": "4vxfz",
      "latitude": "33.779812",
      "longitude": "-84.352325",
      "name": "Virginia Highlands Overflow Meeting",
      "start_day": "2015-07-29",
      "start_dt": "2015-07-29 19:00:00",
      "start_time": "19:00:00",
      "venue_zip": "30306",
      "bernieID": 1892
    },
    {
      "attendee_count": 3,
      "capacity": "0",
      "id": "3819",
      "id_obfuscated": "4jttg",
      "latitude": "31.328156",
      "longitude": "-89.326271",
      "name": "HattiesBernie Meet Up",
      "start_day": "2015-07-29",
      "start_dt": "2015-07-29 18:00:00",
      "start_time": "18:00:00",
      "venue_zip": "39401",
      "bernieID": 1893
    },
    {
      "attendee_count": 50,
      "capacity": "50",
      "id": "748",
      "id_obfuscated": "wlr",
      "latitude": "40.813545",
      "longitude": "-96.675873",
      "name": "NEforBernie Organizing Meeting w/ Bernie livecast",
      "start_day": "2015-07-29",
      "start_dt": "2015-07-29 18:00:00",
      "start_time": "18:00:00",
      "venue_zip": "68510",
      "bernieID": 1894
    },
    {
      "attendee_count": 11,
      "capacity": "20",
      "id": "1260",
      "id_obfuscated": "4jvvh",
      "latitude": "43.059990",
      "longitude": "-87.977547",
      "name": "Organizing Bernie Supporters in Brew City",
      "start_day": "2015-07-29",
      "start_dt": "2015-07-29 18:00:00",
      "start_time": "18:00:00",
      "venue_zip": "53208",
      "bernieID": 1895
    },
    {
      "attendee_count": 25,
      "capacity": "25",
      "id": "2028",
      "id_obfuscated": "4jjwq",
      "latitude": "39.770973",
      "longitude": "-86.066383",
      "name": "East Side Indy for Bernie Sanders",
      "start_day": "2015-07-29",
      "start_dt": "2015-07-29 19:00:00",
      "start_time": "19:00:00",
      "venue_zip": "46219",
      "bernieID": 1896
    },
    {
      "attendee_count": 7,
      "capacity": "20",
      "id": "2540",
      "id_obfuscated": "4v7g9",
      "latitude": "48.564289",
      "longitude": "-120.336960",
      "name": "Kickoff for Bernie with the Hall Family",
      "start_day": "2015-07-29",
      "start_dt": "2015-07-29 19:00:00",
      "start_time": "19:00:00",
      "venue_zip": "98862",
      "bernieID": 1897
    },
    {
      "attendee_count": 0,
      "capacity": "0",
      "id": "3564",
      "id_obfuscated": "4vxfd",
      "latitude": "33.730495",
      "longitude": "-83.956070",
      "name": "Conyers-Rockdale Democrats",
      "start_day": "2015-07-29",
      "start_dt": "2015-07-29 19:00:00",
      "start_time": "19:00:00",
      "venue_zip": "30094",
      "bernieID": 1898
    },
    {
      "attendee_count": 64,
      "capacity": "0",
      "id": "1773",
      "id_obfuscated": "4jv3h",
      "latitude": "26.627548",
      "longitude": "-81.940697",
      "name": "Ft. Myers / Cape Coral Area Organizing Night for Bernie!",
      "start_day": "2015-07-29",
      "start_dt": "2015-07-29 19:00:00",
      "start_time": "19:00:00",
      "venue_zip": "33904",
      "bernieID": 1899
    },
    {
      "attendee_count": 4,
      "capacity": "0",
      "id": "2285",
      "id_obfuscated": "4v55j",
      "latitude": "33.491821",
      "longitude": "-80.855644",
      "name": "Orangeburg Bernie Sanders Campaign",
      "start_day": "2015-07-29",
      "start_dt": "2015-07-29 19:00:00",
      "start_time": "19:00:00",
      "venue_zip": "29115",
      "bernieID": 1900
    },
    {
      "attendee_count": 25,
      "capacity": "60",
      "id": "2541",
      "id_obfuscated": "4v7g8",
      "latitude": "38.806355",
      "longitude": "-104.755516",
      "name": "July 29th Live Webinar w Bernie in Colorado Springs!",
      "start_day": "2015-07-29",
      "start_dt": "2015-07-29 17:00:00",
      "start_time": "17:00:00",
      "venue_zip": "80916",
      "bernieID": 1901
    },
    {
      "attendee_count": 15,
      "capacity": "15",
      "id": "1006",
      "id_obfuscated": "4jrzy",
      "latitude": "40.438568",
      "longitude": "-80.076920",
      "name": "Crafton Area Meetup for Bernie Sanders",
      "start_day": "2015-07-29",
      "start_dt": "2015-07-29 19:00:00",
      "start_time": "19:00:00",
      "venue_zip": "15205",
      "bernieID": 1902
    },
    {
      "attendee_count": 49,
      "capacity": "200",
      "id": "2286",
      "id_obfuscated": "4v55w",
      "latitude": "41.305641",
      "longitude": "-72.928772",
      "name": "New Haven Bernie Sanders Organizing Meeting at the Pacific Standard Tavern",
      "start_day": "2015-07-29",
      "start_dt": "2015-07-29 19:00:00",
      "start_time": "19:00:00",
      "venue_zip": "06510",
      "bernieID": 1903
    },
    {
      "attendee_count": 5,
      "capacity": "10",
      "id": "2798",
      "id_obfuscated": "4v78j",
      "latitude": "32.417126",
      "longitude": "-81.783760",
      "name": "Statesboro for Bernie!",
      "start_day": "2015-07-29",
      "start_dt": "2015-07-29 19:00:00",
      "start_time": "19:00:00",
      "venue_zip": "30458",
      "bernieID": 1904
    },
    {
      "attendee_count": 30,
      "capacity": "30",
      "id": "1263",
      "id_obfuscated": "4jvvx",
      "latitude": "39.432549",
      "longitude": "-76.611595",
      "name": "Lutherville Organizing Meeting",
      "start_day": "2015-07-29",
      "start_dt": "2015-07-29 19:00:00",
      "start_time": "19:00:00",
      "venue_zip": "21093",
      "bernieID": 1905
    },
    {
      "attendee_count": 15,
      "capacity": "30",
      "id": "1519",
      "id_obfuscated": "4jvyy",
      "latitude": "36.088230",
      "longitude": "-81.926323",
      "name": "Avery County Sanders Kick off",
      "start_day": "2015-07-29",
      "start_dt": "2015-07-29 19:00:00",
      "start_time": "19:00:00",
      "venue_zip": "28657",
      "bernieID": 1906
    },
    {
      "attendee_count": 15,
      "capacity": "15",
      "id": "1775",
      "id_obfuscated": "4jv37",
      "latitude": "35.099083",
      "longitude": "-106.653770",
      "name": "Albuquerque Organizing Meeting for Bernie Sanders",
      "start_day": "2015-07-29",
      "start_dt": "2015-07-29 17:00:00",
      "start_time": "17:00:00",
      "venue_zip": "87102",
      "bernieID": 1907
    },
    {
      "attendee_count": 30,
      "capacity": "30",
      "id": "3055",
      "id_obfuscated": "4v77f",
      "latitude": "32.808006",
      "longitude": "-96.813263",
      "name": "We the People, Not the Billionaires!!",
      "start_day": "2015-07-29",
      "start_dt": "2015-07-29 18:00:00",
      "start_time": "18:00:00",
      "venue_zip": "75219",
      "bernieID": 1908
    },
    {
      "attendee_count": 7,
      "capacity": "0",
      "id": "3567",
      "id_obfuscated": "4vxf8",
      "latitude": "28.522993",
      "longitude": "-81.149445",
      "name": "East Orlando for Bernie",
      "start_day": "2015-07-29",
      "start_dt": "2015-07-29 19:00:00",
      "start_time": "19:00:00",
      "venue_zip": "32828",
      "bernieID": 1909
    },
    {
      "attendee_count": 20,
      "capacity": "20",
      "id": "496",
      "id_obfuscated": "wrly",
      "latitude": "38.814907",
      "longitude": "-77.050591",
      "name": "Old town alexandria meeting",
      "start_day": "2015-07-29",
      "start_dt": "2015-07-29 19:00:00",
      "start_time": "19:00:00",
      "venue_zip": "22314",
      "bernieID": 1910
    },
    {
      "attendee_count": 79,
      "capacity": "180",
      "id": "752",
      "id_obfuscated": "wgt",
      "latitude": "44.823837",
      "longitude": "-91.536812",
      "name": "Eau Claire Area Democrats Organizing Event",
      "start_day": "2015-07-29",
      "start_dt": "2015-07-29 18:00:00",
      "start_time": "18:00:00",
      "venue_zip": "54703",
      "bernieID": 1911
    },
    {
      "attendee_count": 15,
      "capacity": "15",
      "id": "1008",
      "id_obfuscated": "4jrzm",
      "latitude": "28.971043",
      "longitude": "-82.180611",
      "name": "Bernie Sanders election kickoff at Pine Eden Village",
      "start_day": "2015-07-29",
      "start_dt": "2015-07-29 19:00:00",
      "start_time": "19:00:00",
      "venue_zip": "34473",
      "bernieID": 1912
    },
    {
      "attendee_count": 5,
      "capacity": "15",
      "id": "1264",
      "id_obfuscated": "4jvjq",
      "latitude": "40.357555",
      "longitude": "-94.873207",
      "name": "Maryville for Bernie",
      "start_day": "2015-07-29",
      "start_dt": "2015-07-29 18:00:00",
      "start_time": "18:00:00",
      "venue_zip": "64468",
      "bernieID": 1913
    },
    {
      "attendee_count": 14,
      "capacity": "75",
      "id": "3056",
      "id_obfuscated": "4v77x",
      "latitude": "43.203251",
      "longitude": "-86.249588",
      "name": "West Michigan for Bernie Sanders Kickoff Meeting",
      "start_day": "2015-07-29",
      "start_dt": "2015-07-29 19:00:00",
      "start_time": "19:00:00",
      "venue_zip": "49444",
      "bernieID": 1914
    },
    {
      "attendee_count": 9,
      "capacity": "40",
      "id": "3312",
      "id_obfuscated": "4vxqy",
      "latitude": "35.923527",
      "longitude": "-79.075935",
      "name": "Pacifica Cohousing - #FeelTheBern - All Welcome",
      "start_day": "2015-07-29",
      "start_dt": "2015-07-29 19:00:00",
      "start_time": "19:00:00",
      "venue_zip": "27510",
      "bernieID": 1915
    },
    {
      "attendee_count": 27,
      "capacity": "27",
      "id": "497",
      "id_obfuscated": "wrld",
      "latitude": "36.043400",
      "longitude": "-86.967247",
      "name": "Nashville for Bernie",
      "start_day": "2015-07-29",
      "start_dt": "2015-07-29 18:00:00",
      "start_time": "18:00:00",
      "venue_zip": "37221",
      "bernieID": 1916
    },
    {
      "attendee_count": 45,
      "capacity": "45",
      "id": "1009",
      "id_obfuscated": "4jrzh",
      "latitude": "40.329990",
      "longitude": "-75.084290",
      "name": "Doylestown, PA Organizing Meeting",
      "start_day": "2015-07-29",
      "start_dt": "2015-07-29 19:00:00",
      "start_time": "19:00:00",
      "venue_zip": "18902",
      "bernieID": 1917
    },
    {
      "attendee_count": 30,
      "capacity": "30",
      "id": "1777",
      "id_obfuscated": "4jvmq",
      "latitude": "39.852634",
      "longitude": "-75.525131",
      "name": "Garnet Valley - Organize for Bernie Kickoff Meeting",
      "start_day": "2015-07-29",
      "start_dt": "2015-07-29 19:00:00",
      "start_time": "19:00:00",
      "venue_zip": "19060",
      "bernieID": 1918
    },
    {
      "attendee_count": 30,
      "capacity": "30",
      "id": "2289",
      "id_obfuscated": "4v559",
      "latitude": "37.553234",
      "longitude": "-77.448631",
      "name": "CarverRVA4Bernie",
      "start_day": "2015-07-29",
      "start_dt": "2015-07-29 19:00:00",
      "start_time": "19:00:00",
      "venue_zip": "23220",
      "bernieID": 1919
    },
    {
      "attendee_count": 10,
      "capacity": "20",
      "id": "2545",
      "id_obfuscated": "4v7lr",
      "latitude": "29.716761",
      "longitude": "-95.345993",
      "name": "3rd ward for Bernie",
      "start_day": "2015-07-29",
      "start_dt": "2015-07-29 18:00:00",
      "start_time": "18:00:00",
      "venue_zip": "77004",
      "bernieID": 1920
    },
    {
      "attendee_count": 4,
      "capacity": "30",
      "id": "3569",
      "id_obfuscated": "4vxfx",
      "latitude": "41.288639",
      "longitude": "-96.007889",
      "name": "Benson Bernie overflow event",
      "start_day": "2015-07-29",
      "start_dt": "2015-07-29 18:00:00",
      "start_time": "18:00:00",
      "venue_zip": "68104",
      "bernieID": 1921
    },
    {
      "attendee_count": 17,
      "capacity": "0",
      "id": "498",
      "id_obfuscated": "wrls",
      "latitude": "29.625854",
      "longitude": "-90.798981",
      "name": "Houma for Bernie",
      "start_day": "2015-07-29",
      "start_dt": "2015-07-29 18:00:00",
      "start_time": "18:00:00",
      "venue_zip": "70360",
      "bernieID": 1922
    },
    {
      "attendee_count": 30,
      "capacity": "31",
      "id": "1266",
      "id_obfuscated": "4jvjs",
      "latitude": "44.485596",
      "longitude": "-73.209656",
      "name": "Burlington Old North End Organizing Meeting to Elect Bernie as Our Next President",
      "start_day": "2015-07-29",
      "start_dt": "2015-07-29 19:00:00",
      "start_time": "19:00:00",
      "venue_zip": "05401",
      "bernieID": 1923
    },
    {
      "attendee_count": 10,
      "capacity": "10",
      "id": "1778",
      "id_obfuscated": "4jvmb",
      "latitude": "44.474476",
      "longitude": "-73.210785",
      "name": "05401",
      "start_day": "2015-07-29",
      "start_dt": "2015-07-29 19:00:00",
      "start_time": "19:00:00",
      "venue_zip": "05401",
      "bernieID": 1924
    },
    {
      "attendee_count": 14,
      "capacity": "0",
      "id": "2290",
      "id_obfuscated": "4v558",
      "latitude": "44.458450",
      "longitude": "-93.164421",
      "name": "Northfield, MN stands with Bernie",
      "start_day": "2015-07-29",
      "start_dt": "2015-07-29 18:00:00",
      "start_time": "18:00:00",
      "venue_zip": "55057",
      "bernieID": 1925
    },
    {
      "attendee_count": 5,
      "capacity": "10",
      "id": "3058",
      "id_obfuscated": "4v7xr",
      "latitude": "41.358047",
      "longitude": "-93.557442",
      "name": "Indianola House Meeting for Bernie Sanders",
      "start_day": "2015-07-29",
      "start_dt": "2015-07-29 18:00:00",
      "start_time": "18:00:00",
      "venue_zip": "50125",
      "bernieID": 1926
    },
    {
      "attendee_count": 1,
      "capacity": "6",
      "id": "3570",
      "id_obfuscated": "4vxct",
      "latitude": "42.854126",
      "longitude": "-89.374352",
      "name": "Organizing Kickoff - Brooklyn WI",
      "start_day": "2015-07-29",
      "start_dt": "2015-07-29 18:00:00",
      "start_time": "18:00:00",
      "venue_zip": "53521",
      "bernieID": 1927
    },
    {
      "attendee_count": 30,
      "capacity": "30",
      "id": "1011",
      "id_obfuscated": "4jrz7",
      "latitude": "40.038830",
      "longitude": "-75.223312",
      "name": "Lower Northwest Philadelphia for Bernie Sanders 2016",
      "start_day": "2015-07-29",
      "start_dt": "2015-07-29 19:00:00",
      "start_time": "19:00:00",
      "venue_zip": "19128",
      "bernieID": 1928
    },
    {
      "attendee_count": 10,
      "capacity": "10",
      "id": "1523",
      "id_obfuscated": "4jvy5",
      "latitude": "25.794506",
      "longitude": "-80.199364",
      "name": "Meetup for Bernie at The Station",
      "start_day": "2015-07-29",
      "start_dt": "2015-07-29 19:00:00",
      "start_time": "19:00:00",
      "venue_zip": "33136",
      "bernieID": 1929
    },
    {
      "attendee_count": 23,
      "capacity": "24",
      "id": "1779",
      "id_obfuscated": "4jvms",
      "latitude": "42.395237",
      "longitude": "-83.225143",
      "name": "Detroit for Bernie",
      "start_day": "2015-07-29",
      "start_dt": "2015-07-29 19:00:00",
      "start_time": "19:00:00",
      "venue_zip": "48223",
      "bernieID": 1930
    },
    {
      "attendee_count": 50,
      "capacity": "50",
      "id": "2291",
      "id_obfuscated": "4v55f",
      "latitude": "33.879162",
      "longitude": "-98.529266",
      "name": "Wichita County Bernis Event",
      "start_day": "2015-07-29",
      "start_dt": "2015-07-29 18:00:00",
      "start_time": "18:00:00",
      "venue_zip": "76308",
      "bernieID": 1931
    },
    {
      "attendee_count": 6,
      "capacity": "12",
      "id": "2803",
      "id_obfuscated": "4v788",
      "latitude": "27.443087",
      "longitude": "-82.510292",
      "name": "East Manatee Organizational Meeting",
      "start_day": "2015-07-29",
      "start_dt": "2015-07-29 19:00:00",
      "start_time": "19:00:00",
      "venue_zip": "34203",
      "bernieID": 1932
    },
    {
      "attendee_count": 1,
      "capacity": "0",
      "id": "3571",
      "id_obfuscated": "4vxcr",
      "latitude": "38.521271",
      "longitude": "-95.360336",
      "name": "Franklin County Gathering for Bernie Sanders",
      "start_day": "2015-07-29",
      "start_dt": "2015-07-29 18:00:00",
      "start_time": "18:00:00",
      "venue_zip": "66067",
      "bernieID": 1933
    },
    {
      "attendee_count": 20,
      "capacity": "20",
      "id": "1268",
      "id_obfuscated": "4jvjw",
      "latitude": "39.940331",
      "longitude": "-75.168785",
      "name": "South Philly - Organize for Bernie",
      "start_day": "2015-07-29",
      "start_dt": "2015-07-29 19:00:00",
      "start_time": "19:00:00",
      "venue_zip": "19146",
      "bernieID": 1934
    },
    {
      "attendee_count": 62,
      "capacity": "75",
      "id": "1780",
      "id_obfuscated": "4jvmj",
      "latitude": "40.354305",
      "longitude": "-75.935112",
      "name": "Reading Area Bernie Sanders Organizing Kickoff Meeting",
      "start_day": "2015-07-29",
      "start_dt": "2015-07-29 19:00:00",
      "start_time": "19:00:00",
      "venue_zip": "19601",
      "bernieID": 1935
    },
    {
      "attendee_count": 60,
      "capacity": "200",
      "id": "2548",
      "id_obfuscated": "4v7gh",
      "latitude": "42.440704",
      "longitude": "-76.511093",
      "name": "Ithaca organizing for Bernie Sanders",
      "start_day": "2015-07-29",
      "start_dt": "2015-07-29 19:00:00",
      "start_time": "19:00:00",
      "venue_zip": "14850",
      "bernieID": 1936
    },
    {
      "attendee_count": 5,
      "capacity": "10",
      "id": "3060",
      "id_obfuscated": "4v77m",
      "latitude": "40.714672",
      "longitude": "-73.982307",
      "name": "Organizing for Bernie on the Lower East Side",
      "start_day": "2015-07-29",
      "start_dt": "2015-07-29 19:00:00",
      "start_time": "19:00:00",
      "venue_zip": "10002",
      "bernieID": 1937
    },
    {
      "attendee_count": 1,
      "capacity": "20",
      "id": "3828",
      "id_obfuscated": "4jttl",
      "latitude": "39.741219",
      "longitude": "-84.182213",
      "name": "Feel the Bern at the Brown St Panera",
      "start_day": "2015-07-29",
      "start_dt": "2015-07-29 19:00:00",
      "start_time": "19:00:00",
      "venue_zip": "45409",
      "bernieID": 1938
    },
    {
      "attendee_count": 38,
      "capacity": "50",
      "id": "501",
      "id_obfuscated": "wrlf",
      "latitude": "29.647387",
      "longitude": "-81.636169",
      "name": "Inspiration, Information and Progress:  Putnam County for Bernie Sanders Kick-off Event",
      "start_day": "2015-07-29",
      "start_dt": "2015-07-29 19:00:00",
      "start_time": "19:00:00",
      "venue_zip": "32177",
      "bernieID": 1939
    },
    {
      "attendee_count": 120,
      "capacity": "120",
      "id": "1269",
      "id_obfuscated": "4jvj4",
      "latitude": "37.970760",
      "longitude": "-87.565895",
      "name": "Evansville for Bernie Sanders",
      "start_day": "2015-07-29",
      "start_dt": "2015-07-29 18:00:00",
      "start_time": "18:00:00",
      "venue_zip": "47713",
      "bernieID": 1940
    },
    {
      "attendee_count": 122,
      "capacity": "200",
      "id": "2037",
      "id_obfuscated": "4jjwf",
      "latitude": "39.636532",
      "longitude": "-79.953522",
      "name": "Morgantown for Bernie Sanders",
      "start_day": "2015-07-29",
      "start_dt": "2015-07-29 19:00:00",
      "start_time": "19:00:00",
      "venue_zip": "26505",
      "bernieID": 1941
    },
    {
      "attendee_count": 17,
      "capacity": "17",
      "id": "2293",
      "id_obfuscated": "4v55p",
      "latitude": "40.581711",
      "longitude": "-122.411858",
      "name": "Organizational meeting for supporters of Bernie Sanders in Redding",
      "start_day": "2015-07-29",
      "start_dt": "2015-07-29 19:00:00",
      "start_time": "19:00:00",
      "venue_zip": "96001",
      "bernieID": 1942
    },
    {
      "attendee_count": 2,
      "capacity": "8",
      "id": "2549",
      "id_obfuscated": "4v7g5",
      "latitude": "42.397572",
      "longitude": "-71.157593",
      "name": "SUPPORT BERNIE BELMONT",
      "start_day": "2015-07-29",
      "start_dt": "2015-07-29 19:00:00",
      "start_time": "19:00:00",
      "venue_zip": "02478",
      "bernieID": 1943
    },
    {
      "attendee_count": 43,
      "capacity": "300",
      "id": "2805",
      "id_obfuscated": "4v78s",
      "latitude": "30.284567",
      "longitude": "-97.717308",
      "name": "The Bat City Zeitgeist",
      "start_day": "2015-07-29",
      "start_dt": "2015-07-29 18:00:00",
      "start_time": "18:00:00",
      "venue_zip": "78722",
      "bernieID": 1944
    },
    {
      "attendee_count": 3,
      "capacity": "0",
      "id": "3573",
      "id_obfuscated": "4vxfm",
      "latitude": "40.562481",
      "longitude": "-84.166000",
      "name": "West Central Ohio for Bernie Sanders",
      "start_day": "2015-07-29",
      "start_dt": "2015-07-29 19:00:00",
      "start_time": "19:00:00",
      "venue_zip": "45895",
      "bernieID": 1945
    },
    {
      "attendee_count": 18,
      "capacity": "18",
      "id": "1014",
      "id_obfuscated": "4jrzz",
      "latitude": "42.341194",
      "longitude": "-71.172165",
      "name": "Bernie for President - Chestnut Hill Neighborhood Organizing Mtg",
      "start_day": "2015-07-29",
      "start_dt": "2015-07-29 19:00:00",
      "start_time": "19:00:00",
      "venue_zip": "02467",
      "bernieID": 1946
    },
    {
      "attendee_count": 40,
      "capacity": "40",
      "id": "1782",
      "id_obfuscated": "4jvm4",
      "latitude": "43.921143",
      "longitude": "-69.817764",
      "name": "Bath, Maine for Bernie",
      "start_day": "2015-07-29",
      "start_dt": "2015-07-29 19:00:00",
      "start_time": "19:00:00",
      "venue_zip": "04530",
      "bernieID": 1947
    },
    {
      "attendee_count": 117,
      "capacity": "0",
      "id": "2038",
      "id_obfuscated": "4jjwc",
      "latitude": "44.939804",
      "longitude": "-93.253334",
      "name": "Bernie Sanders for President: Corcoran/Powderhorn Neighborhood Organizing Meeting Minneapolis",
      "start_day": "2015-07-29",
      "start_dt": "2015-07-29 18:00:00",
      "start_time": "18:00:00",
      "venue_zip": "55407",
      "bernieID": 1948
    },
    {
      "attendee_count": 25,
      "capacity": "25",
      "id": "503",
      "id_obfuscated": "wrl9",
      "latitude": "29.983351",
      "longitude": "-90.170418",
      "name": "Metairie meet up! #feelthebern",
      "start_day": "2015-07-29",
      "start_dt": "2015-07-29 18:00:00",
      "start_time": "18:00:00",
      "venue_zip": "70001",
      "bernieID": 1949
    },
    {
      "attendee_count": 15,
      "capacity": "15",
      "id": "1271",
      "id_obfuscated": "4jvjl",
      "latitude": "41.731068",
      "longitude": "-72.892921",
      "name": "Support for Bernie organizing meeting Unionville CT",
      "start_day": "2015-07-29",
      "start_dt": "2015-07-29 19:00:00",
      "start_time": "19:00:00",
      "venue_zip": "06085",
      "bernieID": 1950
    },
    {
      "attendee_count": 12,
      "capacity": "40",
      "id": "2039",
      "id_obfuscated": "4jjwk",
      "latitude": "34.763306",
      "longitude": "-82.920914",
      "name": "Seneca Believe in Bernie",
      "start_day": "2015-07-29",
      "start_dt": "2015-07-29 19:00:00",
      "start_time": "19:00:00",
      "venue_zip": "29672",
      "bernieID": 1951
    },
    {
      "attendee_count": 15,
      "capacity": "15",
      "id": "3063",
      "id_obfuscated": "4v777",
      "latitude": "38.877186",
      "longitude": "-121.081665",
      "name": "Auburn for Bernie",
      "start_day": "2015-07-29",
      "start_dt": "2015-07-29 19:00:00",
      "start_time": "19:00:00",
      "venue_zip": "95603",
      "bernieID": 1952
    },
    {
      "attendee_count": 97,
      "capacity": "0",
      "id": "760",
      "id_obfuscated": "wgq",
      "latitude": "41.288700",
      "longitude": "-95.993912",
      "name": "Benson (Omaha) for Bernie",
      "start_day": "2015-07-29",
      "start_dt": "2015-07-29 18:00:00",
      "start_time": "18:00:00",
      "venue_zip": "68104",
      "bernieID": 1953
    },
    {
      "attendee_count": 12,
      "capacity": "12",
      "id": "1272",
      "id_obfuscated": "4jvj8",
      "latitude": "38.425186",
      "longitude": "-90.746132",
      "name": "Pacific area supporters of Bernie Sanders",
      "start_day": "2015-07-29",
      "start_dt": "2015-07-29 18:00:00",
      "start_time": "18:00:00",
      "venue_zip": "63069",
      "bernieID": 1954
    },
    {
      "attendee_count": 7,
      "capacity": "8",
      "id": "1784",
      "id_obfuscated": "4jvm9",
      "latitude": "41.523746",
      "longitude": "-112.026169",
      "name": "Sanders 2016-Brigham City",
      "start_day": "2015-07-29",
      "start_dt": "2015-07-29 17:00:00",
      "start_time": "17:00:00",
      "venue_zip": "84302",
      "bernieID": 1955
    },
    {
      "attendee_count": 0,
      "capacity": "15",
      "id": "3832",
      "id_obfuscated": "4jttk",
      "latitude": "32.800991",
      "longitude": "-117.024376",
      "name": "Johnson home, San Carlos area",
      "start_day": "2015-07-29",
      "start_dt": "2015-07-29 19:00:00",
      "start_time": "19:00:00",
      "venue_zip": "92119",
      "bernieID": 1956
    },
    {
      "attendee_count": 70,
      "capacity": "100",
      "id": "1273",
      "id_obfuscated": "4jvjf",
      "latitude": "42.406921",
      "longitude": "-82.893829",
      "name": "Grosse Pointe for Sanders",
      "start_day": "2015-07-29",
      "start_dt": "2015-07-29 19:00:00",
      "start_time": "19:00:00",
      "venue_zip": "48236-3106",
      "bernieID": 1957
    },
    {
      "attendee_count": 20,
      "capacity": "20",
      "id": "2041",
      "id_obfuscated": "4jj4v",
      "latitude": "26.242945",
      "longitude": "-80.289169",
      "name": "Coral Springs for Bernie",
      "start_day": "2015-07-29",
      "start_dt": "2015-07-29 19:00:00",
      "start_time": "19:00:00",
      "venue_zip": "33071",
      "bernieID": 1958
    },
    {
      "attendee_count": 11,
      "capacity": "30",
      "id": "2297",
      "id_obfuscated": "4v55h",
      "latitude": "40.648010",
      "longitude": "-74.381561",
      "name": "rally for bernie",
      "start_day": "2015-07-29",
      "start_dt": "2015-07-29 19:00:00",
      "start_time": "19:00:00",
      "venue_zip": "07023",
      "bernieID": 1959
    },
    {
      "attendee_count": 66,
      "capacity": "100",
      "id": "2553",
      "id_obfuscated": "4v7lb",
      "latitude": "41.484375",
      "longitude": "-81.590004",
      "name": "Bernie Sanders Campaign Organizing Meeting at Deweys Coffee",
      "start_day": "2015-07-29",
      "start_dt": "2015-07-29 19:00:00",
      "start_time": "19:00:00",
      "venue_zip": "44120",
      "bernieID": 1960
    },
    {
      "attendee_count": 20,
      "capacity": "40",
      "id": "762",
      "id_obfuscated": "wgg",
      "latitude": "26.108641",
      "longitude": "-97.309258",
      "name": "South Texas (RGV) Bernie Sanders Organizing Meeting (6 pm CT)",
      "start_day": "2015-07-29",
      "start_dt": "2015-07-29 18:00:00",
      "start_time": "18:00:00",
      "venue_zip": "78578",
      "bernieID": 1961
    },
    {
      "attendee_count": 19,
      "capacity": "20",
      "id": "1530",
      "id_obfuscated": "4jvdw",
      "latitude": "43.646118",
      "longitude": "-72.416573",
      "name": "Quechee Vermont Bernie Sanders House Party",
      "start_day": "2015-07-29",
      "start_dt": "2015-07-29 19:00:00",
      "start_time": "19:00:00",
      "venue_zip": "05059",
      "bernieID": 1962
    },
    {
      "attendee_count": 33,
      "capacity": "50",
      "id": "763",
      "id_obfuscated": "wgl",
      "latitude": "43.745689",
      "longitude": "-72.543404",
      "name": "Bernie Sanders Informational Meeting in East Barnard",
      "start_day": "2015-07-29",
      "start_dt": "2015-07-29 19:00:00",
      "start_time": "19:00:00",
      "venue_zip": "05068",
      "bernieID": 1963
    },
    {
      "attendee_count": 40,
      "capacity": "125",
      "id": "1787",
      "id_obfuscated": "4jvmc",
      "latitude": "35.637070",
      "longitude": "-82.572968",
      "name": "Sanders for President event North Asheville",
      "start_day": "2015-07-29",
      "start_dt": "2015-07-29 19:00:00",
      "start_time": "19:00:00",
      "venue_zip": "28804",
      "bernieID": 1964
    },
    {
      "attendee_count": 65,
      "capacity": "65",
      "id": "2043",
      "id_obfuscated": "4jj4w",
      "latitude": "40.673138",
      "longitude": "-73.989655",
      "name": "Bernie Sanders Live Broadcast & Discussion in Gowanus",
      "start_day": "2015-07-29",
      "start_dt": "2015-07-29 19:00:00",
      "start_time": "19:00:00",
      "venue_zip": "11215",
      "bernieID": 1965
    },
    {
      "attendee_count": 39,
      "capacity": "0",
      "id": "2555",
      "id_obfuscated": "4v7lp",
      "latitude": "30.180433",
      "longitude": "-93.273163",
      "name": "LAKE AREA MOVEMENT",
      "start_day": "2015-07-29",
      "start_dt": "2015-07-29 18:00:00",
      "start_time": "18:00:00",
      "venue_zip": "70605",
      "bernieID": 1966
    },
    {
      "attendee_count": 0,
      "capacity": "10",
      "id": "3835",
      "id_obfuscated": "4jttm",
      "latitude": "34.804600",
      "longitude": "-92.246101",
      "name": "Park Hill Organizing Meeting",
      "start_day": "2015-07-29",
      "start_dt": "2015-07-29 18:00:00",
      "start_time": "18:00:00",
      "venue_zip": "72116",
      "bernieID": 1967
    },
    {
      "attendee_count": 40,
      "capacity": "40",
      "id": "508",
      "id_obfuscated": "wrl5",
      "latitude": "40.724289",
      "longitude": "-73.984917",
      "name": "NYC east village",
      "start_day": "2015-07-29",
      "start_dt": "2015-07-29 19:00:00",
      "start_time": "19:00:00",
      "venue_zip": "10009",
      "bernieID": 1968
    },
    {
      "attendee_count": 58,
      "capacity": "75",
      "id": "2300",
      "id_obfuscated": "4v55c",
      "latitude": "39.464310",
      "longitude": "-84.165886",
      "name": "Warren County Bernie2016 Organizing Kickoff Event with Live Video from Bernie",
      "start_day": "2015-07-29",
      "start_dt": "2015-07-29 19:00:00",
      "start_time": "19:00:00",
      "venue_zip": "45036",
      "bernieID": 1969
    },
    {
      "attendee_count": 12,
      "capacity": "12",
      "id": "3580",
      "id_obfuscated": "4vxcv",
      "latitude": "33.807186",
      "longitude": "-84.317841",
      "name": "Mason Mill kick-off for Bernie",
      "start_day": "2015-07-29",
      "start_dt": "2015-07-29 19:00:00",
      "start_time": "19:00:00",
      "venue_zip": "30329",
      "bernieID": 1970
    },
    {
      "attendee_count": 12,
      "capacity": "125",
      "id": "253",
      "id_obfuscated": "w7y",
      "latitude": "40.326694",
      "longitude": "-79.618042",
      "name": "Western PA for Bernie Organizational Meeting",
      "start_day": "2015-07-29",
      "start_dt": "2015-07-29 19:00:00",
      "start_time": "19:00:00",
      "venue_zip": "15644",
      "bernieID": 1971
    },
    {
      "attendee_count": 43,
      "capacity": "75",
      "id": "509",
      "id_obfuscated": "wrl7",
      "latitude": "35.121979",
      "longitude": "-89.962372",
      "name": "Memphis for Bernie House Party",
      "start_day": "2015-07-29",
      "start_dt": "2015-07-29 18:00:00",
      "start_time": "18:00:00",
      "venue_zip": "38111",
      "bernieID": 1972
    },
    {
      "attendee_count": 10,
      "capacity": "10",
      "id": "765",
      "id_obfuscated": "wgd",
      "latitude": "41.919430",
      "longitude": "-70.681831",
      "name": "Organizing for Bernie in Plymouth",
      "start_day": "2015-07-29",
      "start_dt": "2015-07-29 19:00:00",
      "start_time": "19:00:00",
      "venue_zip": "02360",
      "bernieID": 1973
    },
    {
      "attendee_count": 6,
      "capacity": "6",
      "id": "1533",
      "id_obfuscated": "4jvyx",
      "latitude": "40.656006",
      "longitude": "-73.973724",
      "name": "Windsor Terrace for Bernie Sanders 2016",
      "start_day": "2015-07-29",
      "start_dt": "2015-07-29 19:00:00",
      "start_time": "19:00:00",
      "venue_zip": "11218",
      "bernieID": 1974
    },
    {
      "attendee_count": 15,
      "capacity": "15",
      "id": "1789",
      "id_obfuscated": "4jvmy",
      "latitude": "37.772999",
      "longitude": "-122.494972",
      "name": "San Francisco Meetup to Support Bernie",
      "start_day": "2015-07-29",
      "start_dt": "2015-07-29 19:00:00",
      "start_time": "19:00:00",
      "venue_zip": "94121",
      "bernieID": 1975
    },
    {
      "attendee_count": 25,
      "capacity": "25",
      "id": "2045",
      "id_obfuscated": "4jjw7",
      "latitude": "39.342148",
      "longitude": "-76.636795",
      "name": "Baltimore Grassroots Organizing Meeting",
      "start_day": "2015-07-29",
      "start_dt": "2015-07-29 19:00:00",
      "start_time": "19:00:00",
      "venue_zip": "21211",
      "bernieID": 1976
    },
    {
      "attendee_count": 109,
      "capacity": "0",
      "id": "2301",
      "id_obfuscated": "4v55k",
      "latitude": "34.200752",
      "longitude": "-77.888237",
      "name": "WILMINGTON NORTH CAROLINA FOR BERNIE MEET AND GREET",
      "start_day": "2015-07-29",
      "start_dt": "2015-07-29 19:00:00",
      "start_time": "19:00:00",
      "venue_zip": "28403",
      "bernieID": 1977
    },
    {
      "attendee_count": 20,
      "capacity": "20",
      "id": "1278",
      "id_obfuscated": "4jvj2",
      "latitude": "29.752550",
      "longitude": "-95.389816",
      "name": "Montrose for Bernie",
      "start_day": "2015-07-29",
      "start_dt": "2015-07-29 18:00:00",
      "start_time": "18:00:00",
      "venue_zip": "77006",
      "bernieID": 1978
    },
    {
      "attendee_count": 15,
      "capacity": "15",
      "id": "2302",
      "id_obfuscated": "4v55z",
      "latitude": "42.752327",
      "longitude": "-71.451248",
      "name": "Nashua Organizing for Bernie party",
      "start_day": "2015-07-29",
      "start_dt": "2015-07-29 19:00:00",
      "start_time": "19:00:00",
      "venue_zip": "03060",
      "bernieID": 1979
    },
    {
      "attendee_count": 0,
      "capacity": "25",
      "id": "3326",
      "id_obfuscated": "4vxqc",
      "latitude": "35.993080",
      "longitude": "-105.932243",
      "name": "Chimayosos for Bernie",
      "start_day": "2015-07-29",
      "start_dt": "2015-07-29 17:00:00",
      "start_time": "17:00:00",
      "venue_zip": "87522",
      "bernieID": 1980
    },
    {
      "attendee_count": 76,
      "capacity": "85",
      "id": "255",
      "id_obfuscated": "w7s",
      "latitude": "44.516129",
      "longitude": "-88.023361",
      "name": "WI4Bernie Official Meet Up - Green Bay",
      "start_day": "2015-07-29",
      "start_dt": "2015-07-29 18:00:00",
      "start_time": "18:00:00",
      "venue_zip": "54303",
      "bernieID": 1981
    },
    {
      "attendee_count": 137,
      "capacity": "150",
      "id": "767",
      "id_obfuscated": "wgp",
      "latitude": "40.731091",
      "longitude": "-111.854523",
      "name": "Salt Lake City Meeting On Behalf of Utah for Bernie Sanders (At Westminster College)",
      "start_day": "2015-07-29",
      "start_dt": "2015-07-29 17:00:00",
      "start_time": "17:00:00",
      "venue_zip": "84105",
      "bernieID": 1982
    },
    {
      "attendee_count": 30,
      "capacity": "30",
      "id": "1023",
      "id_obfuscated": "4jr3v",
      "latitude": "41.919071",
      "longitude": "-87.720520",
      "name": "Logan Square is Organizing for Bernie at JP & Jenny's House!",
      "start_day": "2015-07-29",
      "start_dt": "2015-07-29 18:00:00",
      "start_time": "18:00:00",
      "venue_zip": "60647",
      "bernieID": 1983
    },
    {
      "attendee_count": 80,
      "capacity": "80",
      "id": "1791",
      "id_obfuscated": "4jvm2",
      "latitude": "36.068203",
      "longitude": "-79.828087",
      "name": "Bernie at Common Grounds Coffee Greensboro NC",
      "start_day": "2015-07-29",
      "start_dt": "2015-07-29 19:00:00",
      "start_time": "19:00:00",
      "venue_zip": "27403",
      "bernieID": 1984
    },
    {
      "attendee_count": 15,
      "capacity": "15",
      "id": "2047",
      "id_obfuscated": "4jj4t",
      "latitude": "42.466911",
      "longitude": "-83.131233",
      "name": "July 29 - Bernie Sanders Organizing Meeting - Ferndale, MI",
      "start_day": "2015-07-29",
      "start_dt": "2015-07-29 19:00:00",
      "start_time": "19:00:00",
      "venue_zip": "48220",
      "bernieID": 1985
    },
    {
      "attendee_count": 68,
      "capacity": "0",
      "id": "2963",
      "id_obfuscated": "4vxtl",
      "latitude": "34.057884",
      "longitude": "-84.664253",
      "name": "Acworth Downtown Meetup/Pushed to 7:00",
      "start_day": "2015-07-29",
      "start_dt": "2015-07-29 18:55:00",
      "start_time": "18:55:00",
      "venue_zip": "30101",
      "bernieID": 1986
    },
    {
      "attendee_count": 8,
      "capacity": "15",
      "id": "2871",
      "id_obfuscated": "4v7h9",
      "latitude": "37.794971",
      "longitude": "-122.244583",
      "name": "Oakland Grassroots Campaign Kickoff",
      "start_day": "2015-07-29",
      "start_dt": "2015-07-29 18:50:00",
      "start_time": "18:50:00",
      "venue_zip": "94606",
      "bernieID": 1987
    },
    {
      "attendee_count": 8,
      "capacity": "15",
      "id": "2187",
      "id_obfuscated": "4v572",
      "latitude": "38.815758",
      "longitude": "-77.126747",
      "name": "203 N Ripley for Bernie",
      "start_day": "2015-07-29",
      "start_dt": "2015-07-29 18:50:00",
      "start_time": "18:50:00",
      "venue_zip": "22304",
      "bernieID": 1988
    },
    {
      "attendee_count": 13,
      "capacity": "13",
      "id": "440",
      "id_obfuscated": "wrsj",
      "latitude": "37.857601",
      "longitude": "-122.274277",
      "name": "South Berkeley Kickoff",
      "start_day": "2015-07-29",
      "start_dt": "2015-07-29 18:50:00",
      "start_time": "18:50:00",
      "venue_zip": "94703",
      "bernieID": 1989
    },
    {
      "attendee_count": 18,
      "capacity": "20",
      "id": "1280",
      "id_obfuscated": "4jvqf",
      "latitude": "41.540249",
      "longitude": "-72.376549",
      "name": "Come Support Bernie Sanders for President",
      "start_day": "2015-07-29",
      "start_dt": "2015-07-29 18:45:00",
      "start_time": "18:45:00",
      "venue_zip": "06415",
      "bernieID": 1990
    },
    {
      "attendee_count": 24,
      "capacity": "25",
      "id": "1537",
      "id_obfuscated": "4jvcw",
      "latitude": "39.645733",
      "longitude": "-75.327606",
      "name": "Woodstown SINGOUT for Bernie",
      "start_day": "2015-07-29",
      "start_dt": "2015-07-29 18:45:00",
      "start_time": "18:45:00",
      "venue_zip": "08098",
      "bernieID": 1991
    },
    {
      "attendee_count": 18,
      "capacity": "20",
      "id": "1793",
      "id_obfuscated": "4jjtf",
      "latitude": "44.158192",
      "longitude": "-88.496223",
      "name": "Bernie Sanders 2016 Presidential Campaign Kickoff Event - Neenah WI",
      "start_day": "2015-07-29",
      "start_dt": "2015-07-29 17:45:00",
      "start_time": "17:45:00",
      "venue_zip": "54956",
      "bernieID": 1992
    },
    {
      "attendee_count": 10,
      "capacity": "10",
      "id": "2305",
      "id_obfuscated": "4v7v5",
      "latitude": "39.850082",
      "longitude": "-77.215683",
      "name": "Gettysburg PA Organization Meeting",
      "start_day": "2015-07-29",
      "start_dt": "2015-07-29 18:45:00",
      "start_time": "18:45:00",
      "venue_zip": "17325",
      "bernieID": 1993
    },
    {
      "attendee_count": 54,
      "capacity": "327",
      "id": "2819",
      "id_obfuscated": "4v737",
      "latitude": "40.102982",
      "longitude": "-88.230225",
      "name": "Bernie 2016 Organizing Kickoff hosted by Illini for Bernie",
      "start_day": "2015-07-29",
      "start_dt": "2015-07-29 17:45:00",
      "start_time": "17:45:00",
      "venue_zip": "61820",
      "bernieID": 1994
    },
    {
      "attendee_count": 20,
      "capacity": "30",
      "id": "2569",
      "id_obfuscated": "4v7yc",
      "latitude": "30.618067",
      "longitude": "-96.347702",
      "name": "Mohan Malhotra's Organizing Meeting",
      "start_day": "2015-07-29",
      "start_dt": "2015-07-29 18:45:00",
      "start_time": "18:45:00",
      "venue_zip": "77840",
      "bernieID": 1995
    },
    {
      "attendee_count": 179,
      "capacity": "250",
      "id": "1295",
      "id_obfuscated": "4jvq5",
      "latitude": "46.834614",
      "longitude": "-96.875969",
      "name": "Scheels Arena - Fargo, ND - Bernie for President!",
      "start_day": "2015-07-29",
      "start_dt": "2015-07-29 17:45:00",
      "start_time": "17:45:00",
      "venue_zip": "58104",
      "bernieID": 1996
    },
    {
      "attendee_count": 10,
      "capacity": "25",
      "id": "3351",
      "id_obfuscated": "4vx2b",
      "latitude": "38.775410",
      "longitude": "-92.262390",
      "name": "Ashland for Bernie Sanders Campaign Kickoff",
      "start_day": "2015-07-29",
      "start_dt": "2015-07-29 17:45:00",
      "start_time": "17:45:00",
      "venue_zip": "65010",
      "bernieID": 1997
    },
    {
      "attendee_count": 43,
      "capacity": "60",
      "id": "280",
      "id_obfuscated": "wrw4",
      "latitude": "41.718208",
      "longitude": "-83.723503",
      "name": "Sylvania for Bernie!",
      "start_day": "2015-07-29",
      "start_dt": "2015-07-29 18:45:00",
      "start_time": "18:45:00",
      "venue_zip": "43560",
      "bernieID": 1998
    },
    {
      "attendee_count": 69,
      "capacity": "0",
      "id": "281",
      "id_obfuscated": "wrwg",
      "latitude": "40.300270",
      "longitude": "-83.070221",
      "name": "Bern'n down the house, Delaware!!",
      "start_day": "2015-07-29",
      "start_dt": "2015-07-29 18:45:00",
      "start_time": "18:45:00",
      "venue_zip": "43015",
      "bernieID": 1999
    },
    {
      "attendee_count": 12,
      "capacity": "0",
      "id": "540",
      "id_obfuscated": "wv5",
      "latitude": "44.991299",
      "longitude": "-93.258667",
      "name": "NE Minneapolis \"Bernie Sanders for President\" Organizing Kickoff",
      "start_day": "2015-07-29",
      "start_dt": "2015-07-29 17:45:00",
      "start_time": "17:45:00",
      "venue_zip": "55413",
      "bernieID": 2000
    }
  ]
}