{
  "results": [
    {
      "attendee_count": 86,
      "capacity": "0",
      "id": "1770",
      "id_obfuscated": "4jvmr",
      "latitude": "37.426708",
      "longitude": "-122.172256",
      "name": "Stanford for Bernie!",
      "start_day": "2015-07-29",
      "start_dt": "2015-07-29 19:00:00",
      "start_time": "19:00:00",
      "venue_zip": "94305",
      "bernieID": 401
    },
    {
      "attendee_count": 11,
      "capacity": "0",
      "id": "3050",
      "id_obfuscated": "4v77z",
      "latitude": "39.616261",
      "longitude": "-105.250198",
      "name": "Foothills Area - Indian Hills, CO",
      "start_day": "2015-07-29",
      "start_dt": "2015-07-29 20:00:00",
      "start_time": "20:00:00",
      "venue_zip": "80454",
      "bernieID": 402
    },
    {
      "attendee_count": 50,
      "capacity": "50",
      "id": "1259",
      "id_obfuscated": "4jvjj",
      "latitude": "39.735035",
      "longitude": "-104.963249",
      "name": "Central Denver Bernie Supporters",
      "start_day": "2015-07-29",
      "start_dt": "2015-07-29 20:00:00",
      "start_time": "20:00:00",
      "venue_zip": "80206",
      "bernieID": 403
    },
    {
      "attendee_count": 26,
      "capacity": "0",
      "id": "2539",
      "id_obfuscated": "4v7gm",
      "latitude": "20.913832",
      "longitude": "-156.323090",
      "name": "Boochin with Bernie",
      "start_day": "2015-07-29",
      "start_dt": "2015-07-29 16:00:00",
      "start_time": "16:00:00",
      "venue_zip": "96708",
      "bernieID": 404
    },
    {
      "attendee_count": 10,
      "capacity": "10",
      "id": "492",
      "id_obfuscated": "wrqd",
      "latitude": "32.792702",
      "longitude": "-97.363663",
      "name": "Bernie Sanders Broadcast Meeting",
      "start_day": "2015-07-29",
      "start_dt": "2015-07-29 21:00:00",
      "start_time": "21:00:00",
      "venue_zip": "76164",
      "bernieID": 405
    },
    {
      "attendee_count": 15,
      "capacity": "15",
      "id": "1004",
      "id_obfuscated": "4jrzs",
      "latitude": "37.591137",
      "longitude": "-122.494911",
      "name": "Pacifica For Bernie Sanders",
      "start_day": "2015-07-29",
      "start_dt": "2015-07-29 19:00:00",
      "start_time": "19:00:00",
      "venue_zip": "94044",
      "bernieID": 406
    },
    {
      "attendee_count": 11,
      "capacity": "30",
      "id": "2284",
      "id_obfuscated": "4v55v",
      "latitude": "48.768085",
      "longitude": "-122.223450",
      "name": "Whatcom County for Change: Bucolics for Bernie Unite!",
      "start_day": "2015-07-29",
      "start_dt": "2015-07-29 19:00:00",
      "start_time": "19:00:00",
      "venue_zip": "98244",
      "bernieID": 407
    },
    {
      "attendee_count": 1,
      "capacity": "10",
      "id": "3820",
      "id_obfuscated": "4vxxx",
      "latitude": "47.045174",
      "longitude": "-122.866432",
      "name": "Olympia organizing party (new) - NW Beerwerks",
      "start_day": "2015-07-29",
      "start_dt": "2015-07-29 19:00:00",
      "start_time": "19:00:00",
      "venue_zip": "98506",
      "bernieID": 408
    },
    {
      "attendee_count": 5,
      "capacity": "15",
      "id": "749",
      "id_obfuscated": "wlv",
      "latitude": "37.464539",
      "longitude": "-105.871002",
      "name": "Alamosa Event for Bernie",
      "start_day": "2015-07-29",
      "start_dt": "2015-07-29 20:00:00",
      "start_time": "20:00:00",
      "venue_zip": "81101",
      "bernieID": 409
    },
    {
      "attendee_count": 15,
      "capacity": "15",
      "id": "2029",
      "id_obfuscated": "4jjwb",
      "latitude": "34.261791",
      "longitude": "-119.271812",
      "name": "Venturans for Bernie Sanders for President in 2016",
      "start_day": "2015-07-29",
      "start_dt": "2015-07-29 19:00:00",
      "start_time": "19:00:00",
      "venue_zip": "93001",
      "bernieID": 410
    },
    {
      "attendee_count": 8,
      "capacity": "0",
      "id": "3053",
      "id_obfuscated": "4v779",
      "latitude": "46.390125",
      "longitude": "-117.057030",
      "name": "Bernie 2016 LC Valley Organizing Meeting",
      "start_day": "2015-07-29",
      "start_dt": "2015-07-29 19:00:00",
      "start_time": "19:00:00",
      "venue_zip": "99403",
      "bernieID": 411
    },
    {
      "attendee_count": 2,
      "capacity": "10",
      "id": "3054",
      "id_obfuscated": "4v778",
      "latitude": "39.340015",
      "longitude": "-120.221268",
      "name": "July 29 Organizing Meeting for Bernie - Truckee CA",
      "start_day": "2015-07-29",
      "start_dt": "2015-07-29 19:00:00",
      "start_time": "19:00:00",
      "venue_zip": "96161",
      "bernieID": 412
    },
    {
      "attendee_count": 24,
      "capacity": "0",
      "id": "495",
      "id_obfuscated": "wrqy",
      "latitude": "32.687531",
      "longitude": "-117.078819",
      "name": "Paradise Villager's For Bernie Sanders 4 U.S. PRESIDENT In 2016",
      "start_day": "2015-07-29",
      "start_dt": "2015-07-29 19:00:00",
      "start_time": "19:00:00",
      "venue_zip": "91950",
      "bernieID": 413
    },
    {
      "attendee_count": 163,
      "capacity": "0",
      "id": "1776",
      "id_obfuscated": "4jvml",
      "latitude": "32.336967",
      "longitude": "-110.976730",
      "name": "WIN BERNIE WIN! Organize for Bernie Sanders!!",
      "start_day": "2015-07-29",
      "start_dt": "2015-07-29 19:00:00",
      "start_time": "19:00:00",
      "venue_zip": "85704",
      "bernieID": 414
    },
    {
      "attendee_count": 14,
      "capacity": "14",
      "id": "3568",
      "id_obfuscated": "4vxf7",
      "latitude": "47.628223",
      "longitude": "-117.369843",
      "name": "Bernie Sanders for President Organizational Kick-Off SouthHill Spokane",
      "start_day": "2015-07-29",
      "start_dt": "2015-07-29 19:00:00",
      "start_time": "19:00:00",
      "venue_zip": "99223",
      "bernieID": 415
    },
    {
      "attendee_count": 28,
      "capacity": "35",
      "id": "753",
      "id_obfuscated": "wgr",
      "latitude": "39.745384",
      "longitude": "-104.937233",
      "name": "Park Hill and City Park for Bernie Sanders!",
      "start_day": "2015-07-29",
      "start_dt": "2015-07-29 20:00:00",
      "start_time": "20:00:00",
      "venue_zip": "80220",
      "bernieID": 416
    },
    {
      "attendee_count": 89,
      "capacity": "0",
      "id": "1265",
      "id_obfuscated": "4jvjb",
      "latitude": "48.710999",
      "longitude": "-122.415497",
      "name": "Bellingham Bernie Sanders Supporters",
      "start_day": "2015-07-29",
      "start_dt": "2015-07-29 19:00:00",
      "start_time": "19:00:00",
      "venue_zip": "98229",
      "bernieID": 417
    },
    {
      "attendee_count": 25,
      "capacity": "0",
      "id": "1521",
      "id_obfuscated": "4jvym",
      "latitude": "48.291695",
      "longitude": "-122.638466",
      "name": "Oak Harbor for Bernie Sanders",
      "start_day": "2015-07-29",
      "start_dt": "2015-07-29 19:00:00",
      "start_time": "19:00:00",
      "venue_zip": "98277",
      "bernieID": 418
    },
    {
      "attendee_count": 50,
      "capacity": "50",
      "id": "2801",
      "id_obfuscated": "4v782",
      "latitude": "33.179054",
      "longitude": "-117.202789",
      "name": "North County Bern Unit",
      "start_day": "2015-07-29",
      "start_dt": "2015-07-29 19:00:00",
      "start_time": "19:00:00",
      "venue_zip": "92084",
      "bernieID": 419
    },
    {
      "attendee_count": 14,
      "capacity": "14",
      "id": "755",
      "id_obfuscated": "w4x",
      "latitude": "37.835667",
      "longitude": "-122.254738",
      "name": "Rockridge/Temescal  Oakland, Bernie Sanders Organizing Meeting",
      "start_day": "2015-07-29",
      "start_dt": "2015-07-29 19:00:00",
      "start_time": "19:00:00",
      "venue_zip": "94618",
      "bernieID": 420
    },
    {
      "attendee_count": 17,
      "capacity": "17",
      "id": "3059",
      "id_obfuscated": "4v7xv",
      "latitude": "38.503731",
      "longitude": "-121.511391",
      "name": "South Land Park for Bernie",
      "start_day": "2015-07-29",
      "start_dt": "2015-07-29 19:00:00",
      "start_time": "19:00:00",
      "venue_zip": "95831",
      "bernieID": 421
    },
    {
      "attendee_count": 16,
      "capacity": "16",
      "id": "3315",
      "id_obfuscated": "4vxq9",
      "latitude": "33.458866",
      "longitude": "-117.636467",
      "name": "Support for Bernie, lower income gap and climate action",
      "start_day": "2015-07-29",
      "start_dt": "2015-07-29 19:00:00",
      "start_time": "19:00:00",
      "venue_zip": "92673",
      "bernieID": 422
    },
    {
      "attendee_count": 40,
      "capacity": "40",
      "id": "1526",
      "id_obfuscated": "4jvyk",
      "latitude": "39.709770",
      "longitude": "-105.088791",
      "name": "Lakewood needs Bernie Organizing Event!",
      "start_day": "2015-07-29",
      "start_dt": "2015-07-29 20:00:00",
      "start_time": "20:00:00",
      "venue_zip": "80226",
      "bernieID": 423
    },
    {
      "attendee_count": 15,
      "capacity": "15",
      "id": "2550",
      "id_obfuscated": "4v7g7",
      "latitude": "33.414734",
      "longitude": "-111.942825",
      "name": "asu for bernie",
      "start_day": "2015-07-29",
      "start_dt": "2015-07-29 19:00:00",
      "start_time": "19:00:00",
      "venue_zip": "85281",
      "bernieID": 424
    },
    {
      "attendee_count": 30,
      "capacity": "30",
      "id": "1527",
      "id_obfuscated": "4jvyz",
      "latitude": "47.884293",
      "longitude": "-122.109550",
      "name": "Snohomish/Echo Lake  Kickoff for Bernie",
      "start_day": "2015-07-29",
      "start_dt": "2015-07-29 19:00:00",
      "start_time": "19:00:00",
      "venue_zip": "98296",
      "bernieID": 425
    },
    {
      "attendee_count": 36,
      "capacity": "0",
      "id": "2295",
      "id_obfuscated": "4v55d",
      "latitude": "46.596020",
      "longitude": "-120.499718",
      "name": "Yakima for Bernie!",
      "start_day": "2015-07-29",
      "start_dt": "2015-07-29 19:00:00",
      "start_time": "19:00:00",
      "venue_zip": "98901",
      "bernieID": 426
    },
    {
      "attendee_count": 7,
      "capacity": "14",
      "id": "3575",
      "id_obfuscated": "4vxf5",
      "latitude": "48.697887",
      "longitude": "-122.674362",
      "name": "Islanders 4 Bernie",
      "start_day": "2015-07-29",
      "start_dt": "2015-07-29 19:00:00",
      "start_time": "19:00:00",
      "venue_zip": "98262",
      "bernieID": 427
    },
    {
      "attendee_count": 58,
      "capacity": "60",
      "id": "761",
      "id_obfuscated": "wgb",
      "latitude": "61.099602",
      "longitude": "-149.854095",
      "name": "It's easy as ABC - Alaskans for Bernie Committee - Anchorage get together",
      "start_day": "2015-07-29",
      "start_dt": "2015-07-29 18:00:00",
      "start_time": "18:00:00",
      "venue_zip": "99515",
      "bernieID": 428
    },
    {
      "attendee_count": 13,
      "capacity": "30",
      "id": "1017",
      "id_obfuscated": "4jr3w",
      "latitude": "33.824497",
      "longitude": "-117.402245",
      "name": "Lake Mathews Residents for  Bernie Sanders",
      "start_day": "2015-07-29",
      "start_dt": "2015-07-29 19:00:00",
      "start_time": "19:00:00",
      "venue_zip": "92570",
      "bernieID": 429
    },
    {
      "attendee_count": 44,
      "capacity": "60",
      "id": "3577",
      "id_obfuscated": "4vxcl",
      "latitude": "47.275997",
      "longitude": "-122.767876",
      "name": "Key Peninsula Citizens for Sanders",
      "start_day": "2015-07-29",
      "start_dt": "2015-07-29 19:00:00",
      "start_time": "19:00:00",
      "venue_zip": "98349",
      "bernieID": 430
    },
    {
      "attendee_count": 25,
      "capacity": "25",
      "id": "506",
      "id_obfuscated": "wrlc",
      "latitude": "36.989689",
      "longitude": "-121.976562",
      "name": "Santa Cruzians for Bernie Sanders",
      "start_day": "2015-07-29",
      "start_dt": "2015-07-29 19:00:00",
      "start_time": "19:00:00",
      "venue_zip": "95065",
      "bernieID": 431
    },
    {
      "attendee_count": 1,
      "capacity": "20",
      "id": "3834",
      "id_obfuscated": "4jtt3",
      "latitude": "34.083595",
      "longitude": "-118.289200",
      "name": "Freaks for Bernie",
      "start_day": "2015-07-29",
      "start_dt": "2015-07-29 19:00:00",
      "start_time": "19:00:00",
      "venue_zip": "90029",
      "bernieID": 432
    },
    {
      "attendee_count": 46,
      "capacity": "50",
      "id": "507",
      "id_obfuscated": "wrlk",
      "latitude": "47.379662",
      "longitude": "-122.050041",
      "name": "Bernie Sanders Organization Meeting",
      "start_day": "2015-07-29",
      "start_dt": "2015-07-29 19:00:00",
      "start_time": "19:00:00",
      "venue_zip": "98038",
      "bernieID": 433
    },
    {
      "attendee_count": 30,
      "capacity": "30",
      "id": "766",
      "id_obfuscated": "wgs",
      "latitude": "47.729572",
      "longitude": "-122.180298",
      "name": "Kingsgate organizing meeting",
      "start_day": "2015-07-29",
      "start_dt": "2015-07-29 19:00:00",
      "start_time": "19:00:00",
      "venue_zip": "98034",
      "bernieID": 434
    },
    {
      "attendee_count": 14,
      "capacity": "15",
      "id": "1022",
      "id_obfuscated": "4jr3r",
      "latitude": "39.272099",
      "longitude": "-119.478401",
      "name": "Dayton, NV Organizing KickOff --Wednesday 07/29 @ 7 PM (Pacific)",
      "start_day": "2015-07-29",
      "start_dt": "2015-07-29 19:00:00",
      "start_time": "19:00:00",
      "venue_zip": "89403",
      "bernieID": 435
    },
    {
      "attendee_count": 10,
      "capacity": "12",
      "id": "2558",
      "id_obfuscated": "4v7lg",
      "latitude": "33.490452",
      "longitude": "-112.690277",
      "name": "Buckeye - Tartesso - Bernie Organizing Meeting",
      "start_day": "2015-07-29",
      "start_dt": "2015-07-29 19:00:00",
      "start_time": "19:00:00",
      "venue_zip": "85396",
      "bernieID": 436
    },
    {
      "attendee_count": 20,
      "capacity": "20",
      "id": "511",
      "id_obfuscated": "wrlh",
      "latitude": "37.752319",
      "longitude": "-122.414078",
      "name": "Organizing kickoff for Bernie in the Mission District, San Francisco",
      "start_day": "2015-07-29",
      "start_dt": "2015-07-29 19:00:00",
      "start_time": "19:00:00",
      "venue_zip": "94110",
      "bernieID": 437
    },
    {
      "attendee_count": 33,
      "capacity": "75",
      "id": "2303",
      "id_obfuscated": "4v553",
      "latitude": "47.592716",
      "longitude": "-120.668350",
      "name": "Sanders for President kickoff event in Leavenworth, WA",
      "start_day": "2015-07-29",
      "start_dt": "2015-07-29 19:00:00",
      "start_time": "19:00:00",
      "venue_zip": "98826",
      "bernieID": 438
    },
    {
      "attendee_count": 17,
      "capacity": "20",
      "id": "2559",
      "id_obfuscated": "4v7ll",
      "latitude": "47.787014",
      "longitude": "-122.207596",
      "name": "Bothell for Bernie",
      "start_day": "2015-07-29",
      "start_dt": "2015-07-29 19:00:00",
      "start_time": "19:00:00",
      "venue_zip": "98021",
      "bernieID": 439
    },
    {
      "attendee_count": 12,
      "capacity": "12",
      "id": "781",
      "id_obfuscated": "wdt",
      "latitude": "37.889290",
      "longitude": "-122.546799",
      "name": "TAM VALLEY FOR BERNIE",
      "start_day": "2015-07-29",
      "start_dt": "2015-07-29 18:45:00",
      "start_time": "18:45:00",
      "venue_zip": "94941",
      "bernieID": 440
    },
    {
      "attendee_count": 14,
      "capacity": "15",
      "id": "2062",
      "id_obfuscated": "4v5z8",
      "latitude": "37.756992",
      "longitude": "-122.237442",
      "name": "Discussion of Bernie Sanders Candidacy",
      "start_day": "2015-07-29",
      "start_dt": "2015-07-29 18:45:00",
      "start_time": "18:45:00",
      "venue_zip": "94501",
      "bernieID": 441
    },
    {
      "attendee_count": 15,
      "capacity": "20",
      "id": "1054",
      "id_obfuscated": "4jrxx",
      "latitude": "46.818340",
      "longitude": "-122.473198",
      "name": "Clearwood Community in Yelm for Bernie 2016",
      "start_day": "2015-07-29",
      "start_dt": "2015-07-29 18:45:00",
      "start_time": "18:45:00",
      "venue_zip": "98597",
      "bernieID": 442
    },
    {
      "attendee_count": 70,
      "capacity": "70",
      "id": "3115",
      "id_obfuscated": "4vx45",
      "latitude": "47.979588",
      "longitude": "-122.207207",
      "name": "Everett Area Bernie Backer's Organizational Meeting",
      "start_day": "2015-07-29",
      "start_dt": "2015-07-29 18:45:00",
      "start_time": "18:45:00",
      "venue_zip": "98201",
      "bernieID": 443
    },
    {
      "attendee_count": 10,
      "capacity": "10",
      "id": "2097",
      "id_obfuscated": "4v5m4",
      "latitude": "34.049282",
      "longitude": "-118.424309",
      "name": "Baby Steps for Bernie (Westwood/Century City)",
      "start_day": "2015-07-29",
      "start_dt": "2015-07-29 18:45:00",
      "start_time": "18:45:00",
      "venue_zip": "90025",
      "bernieID": 444
    },
    {
      "attendee_count": 25,
      "capacity": "25",
      "id": "2624",
      "id_obfuscated": "4v7bx",
      "latitude": "34.058750",
      "longitude": "-118.468430",
      "name": "Bernie's Bash in Brentwood",
      "start_day": "2015-07-29",
      "start_dt": "2015-07-29 18:45:00",
      "start_time": "18:45:00",
      "venue_zip": "90049",
      "bernieID": 445
    },
    {
      "attendee_count": 40,
      "capacity": "40",
      "id": "1864",
      "id_obfuscated": "4jv72",
      "latitude": "34.110329",
      "longitude": "-118.156914",
      "name": "South Pasadena for Bernie Sanders",
      "start_day": "2015-07-29",
      "start_dt": "2015-07-29 18:45:00",
      "start_time": "18:45:00",
      "venue_zip": "91030",
      "bernieID": 446
    },
    {
      "attendee_count": 12,
      "capacity": "12",
      "id": "2400",
      "id_obfuscated": "4v7rc",
      "latitude": "37.969006",
      "longitude": "-122.536110",
      "name": "Young People of Marin for Bernie",
      "start_day": "2015-07-29",
      "start_dt": "2015-07-29 18:45:00",
      "start_time": "18:45:00",
      "venue_zip": "94901",
      "bernieID": 447
    },
    {
      "attendee_count": 57,
      "capacity": "112",
      "id": "609",
      "id_obfuscated": "wr5",
      "latitude": "39.488773",
      "longitude": "-119.780304",
      "name": "Reno BS 4 President",
      "start_day": "2015-07-29",
      "start_dt": "2015-07-29 18:45:00",
      "start_time": "18:45:00",
      "venue_zip": "89502",
      "bernieID": 448
    },
    {
      "attendee_count": 19,
      "capacity": "25",
      "id": "623",
      "id_obfuscated": "wvl",
      "latitude": "47.341156",
      "longitude": "-122.277657",
      "name": "seattle colleges and south king county for bernie",
      "start_day": "2015-07-29",
      "start_dt": "2015-07-29 18:45:00",
      "start_time": "18:45:00",
      "venue_zip": "98001",
      "bernieID": 449
    },
    {
      "attendee_count": 71,
      "capacity": "0",
      "id": "1393",
      "id_obfuscated": "4jvqv",
      "latitude": "37.915726",
      "longitude": "-122.096458",
      "name": "Bernie Sanders for President: Robin Braverman's  Home 7/29/15 6:45PM",
      "start_day": "2015-07-29",
      "start_dt": "2015-07-29 18:45:00",
      "start_time": "18:45:00",
      "venue_zip": "94597",
      "bernieID": 450
    },
    {
      "attendee_count": 12,
      "capacity": "12",
      "id": "1951",
      "id_obfuscated": "4jjg4",
      "latitude": "46.664036",
      "longitude": "-122.965927",
      "name": "Lewis county for Bernie Sanders",
      "start_day": "2015-07-29",
      "start_dt": "2015-07-29 18:45:00",
      "start_time": "18:45:00",
      "venue_zip": "98532",
      "bernieID": 451
    },
    {
      "attendee_count": 35,
      "capacity": "35",
      "id": "2977",
      "id_obfuscated": "4vxt3",
      "latitude": "34.070324",
      "longitude": "-117.445930",
      "name": "Inland Empire for Bernie Sanders - Fontana Area",
      "start_day": "2015-07-29",
      "start_dt": "2015-07-29 18:45:00",
      "start_time": "18:45:00",
      "venue_zip": "92335",
      "bernieID": 452
    },
    {
      "attendee_count": 17,
      "capacity": "0",
      "id": "2725",
      "id_obfuscated": "4v7cw",
      "latitude": "39.180599",
      "longitude": "-122.884285",
      "name": "Watch Bernie live at Dancing TreePeople Farm",
      "start_day": "2015-07-29",
      "start_dt": "2015-07-29 18:45:00",
      "start_time": "18:45:00",
      "venue_zip": "95485",
      "bernieID": 453
    },
    {
      "attendee_count": 52,
      "capacity": "80",
      "id": "2222",
      "id_obfuscated": "4v5x2",
      "latitude": "40.390701",
      "longitude": "-104.717026",
      "name": "Bernie Sanders Kickoff Campaign Meeting for Greeley, Colorado!",
      "start_day": "2015-07-29",
      "start_dt": "2015-07-29 19:45:00",
      "start_time": "19:45:00",
      "venue_zip": "80631",
      "bernieID": 454
    },
    {
      "attendee_count": 15,
      "capacity": "15",
      "id": "1737",
      "id_obfuscated": "4jvzm",
      "latitude": "39.757046",
      "longitude": "-104.886452",
      "name": "Organizing Kickoff for Bernie Sanders in Stapleton!",
      "start_day": "2015-07-29",
      "start_dt": "2015-07-29 19:45:00",
      "start_time": "19:45:00",
      "venue_zip": "80238",
      "bernieID": 455
    },
    {
      "attendee_count": 1,
      "capacity": "5",
      "id": "3796",
      "id_obfuscated": "4vxxv",
      "latitude": "37.863140",
      "longitude": "-122.254951",
      "name": "WDRC Committee to Elect Bernie 2016",
      "start_day": "2015-07-29",
      "start_dt": "2015-07-29 18:45:00",
      "start_time": "18:45:00",
      "venue_zip": "94704",
      "bernieID": 456
    },
    {
      "attendee_count": 125,
      "capacity": "200",
      "id": "1238",
      "id_obfuscated": "4jvvr",
      "latitude": "34.041157",
      "longitude": "-118.150986",
      "name": "East Los Angeles College Students for Bernie (LACCD) Organizing Kick-Off",
      "start_day": "2015-07-29",
      "start_dt": "2015-07-29 18:45:00",
      "start_time": "18:45:00",
      "venue_zip": "91754",
      "bernieID": 457
    },
    {
      "attendee_count": 67,
      "capacity": "100",
      "id": "2557",
      "id_obfuscated": "4v7l4",
      "latitude": "47.412201",
      "longitude": "-122.472603",
      "name": "vashon for Bernie Sanders",
      "start_day": "2015-07-29",
      "start_dt": "2015-07-29 18:45:00",
      "start_time": "18:45:00",
      "venue_zip": "98070",
      "bernieID": 458
    },
    {
      "attendee_count": 25,
      "capacity": "25",
      "id": "627",
      "id_obfuscated": "wrg",
      "latitude": "34.022980",
      "longitude": "-118.407448",
      "name": "Palms Open House for Bernie",
      "start_day": "2015-07-29",
      "start_dt": "2015-07-29 18:40:00",
      "start_time": "18:40:00",
      "venue_zip": "90034",
      "bernieID": 459
    },
    {
      "attendee_count": 4,
      "capacity": "0",
      "id": "2304",
      "id_obfuscated": "4v7vh",
      "latitude": "46.599216",
      "longitude": "-120.522705",
      "name": "yakima by the people, for the people",
      "start_day": "2015-07-29",
      "start_dt": "2015-07-29 18:30:00",
      "start_time": "18:30:00",
      "venue_zip": "98902",
      "bernieID": 460
    },
    {
      "attendee_count": 268,
      "capacity": "0",
      "id": "1283",
      "id_obfuscated": "4jvqz",
      "latitude": "47.035233",
      "longitude": "-122.904755",
      "name": "Thurston County For Bernie @ The Capitol",
      "start_day": "2015-07-29",
      "start_dt": "2015-07-29 18:30:00",
      "start_time": "18:30:00",
      "venue_zip": "98501",
      "bernieID": 461
    },
    {
      "attendee_count": 24,
      "capacity": "0",
      "id": "2564",
      "id_obfuscated": "4v7y4",
      "latitude": "40.116573",
      "longitude": "-123.825577",
      "name": "Bernie Sanders for President Kickoff , Southern Humboldt",
      "start_day": "2015-07-29",
      "start_dt": "2015-07-29 18:30:00",
      "start_time": "18:30:00",
      "venue_zip": "95542",
      "bernieID": 462
    },
    {
      "attendee_count": 41,
      "capacity": "45",
      "id": "773",
      "id_obfuscated": "wyk",
      "latitude": "21.282488",
      "longitude": "-157.798538",
      "name": "Bernie for President Honolulu Kickoff Meeting",
      "start_day": "2015-07-29",
      "start_dt": "2015-07-29 15:30:00",
      "start_time": "15:30:00",
      "venue_zip": "96816",
      "bernieID": 463
    },
    {
      "attendee_count": 8,
      "capacity": "44",
      "id": "3590",
      "id_obfuscated": "4vxh4",
      "latitude": "39.506012",
      "longitude": "-121.552711",
      "name": "Orovillians for Bernie",
      "start_day": "2015-07-29",
      "start_dt": "2015-07-29 18:30:00",
      "start_time": "18:30:00",
      "venue_zip": "95966",
      "bernieID": 464
    },
    {
      "attendee_count": 18,
      "capacity": "20",
      "id": "3080",
      "id_obfuscated": "4vxw8",
      "latitude": "39.261658",
      "longitude": "-119.982704",
      "name": "july 29 Bernie Video event at my home",
      "start_day": "2015-07-29",
      "start_dt": "2015-07-29 18:30:00",
      "start_time": "18:30:00",
      "venue_zip": "89451",
      "bernieID": 465
    },
    {
      "attendee_count": 10,
      "capacity": "10",
      "id": "778",
      "id_obfuscated": "wyz",
      "latitude": "37.664291",
      "longitude": "-122.412827",
      "name": "Sign Hill, South San Francisco",
      "start_day": "2015-07-29",
      "start_dt": "2015-07-29 18:30:00",
      "start_time": "18:30:00",
      "venue_zip": "94080",
      "bernieID": 466
    },
    {
      "attendee_count": 27,
      "capacity": "30",
      "id": "3344",
      "id_obfuscated": "4vx2s",
      "latitude": "39.673080",
      "longitude": "-104.868141",
      "name": "Aurora/East Denver Let's Help Bernie",
      "start_day": "2015-07-29",
      "start_dt": "2015-07-29 19:30:00",
      "start_time": "19:30:00",
      "venue_zip": "80014",
      "bernieID": 467
    },
    {
      "attendee_count": 10,
      "capacity": "10",
      "id": "2065",
      "id_obfuscated": "4v53t",
      "latitude": "47.494453",
      "longitude": "-122.265442",
      "name": "BBQ, Beer and Bernie",
      "start_day": "2015-07-29",
      "start_dt": "2015-07-29 18:30:00",
      "start_time": "18:30:00",
      "venue_zip": "98178",
      "bernieID": 468
    },
    {
      "attendee_count": 15,
      "capacity": "15",
      "id": "2577",
      "id_obfuscated": "4v7yx",
      "latitude": "39.808380",
      "longitude": "-105.092735",
      "name": "Arvadan's for Bernie Sanders' Presidential Bid",
      "start_day": "2015-07-29",
      "start_dt": "2015-07-29 19:30:00",
      "start_time": "19:30:00",
      "venue_zip": "80004",
      "bernieID": 469
    },
    {
      "attendee_count": 55,
      "capacity": "150",
      "id": "531",
      "id_obfuscated": "wvp",
      "latitude": "40.586540",
      "longitude": "-122.391678",
      "name": "Redding Organizing For Bernie Sanders",
      "start_day": "2015-07-29",
      "start_dt": "2015-07-29 18:30:00",
      "start_time": "18:30:00",
      "venue_zip": "96001",
      "bernieID": 470
    },
    {
      "attendee_count": 75,
      "capacity": "100",
      "id": "787",
      "id_obfuscated": "wp5",
      "latitude": "47.551914",
      "longitude": "-122.261963",
      "name": "Seward Park - Bernie kick-off",
      "start_day": "2015-07-29",
      "start_dt": "2015-07-29 18:30:00",
      "start_time": "18:30:00",
      "venue_zip": "98118",
      "bernieID": 471
    },
    {
      "attendee_count": 12,
      "capacity": "12",
      "id": "3091",
      "id_obfuscated": "4vx4t",
      "latitude": "32.226940",
      "longitude": "-110.846809",
      "name": "East-Central Bernie mtg @ Steve & Sara's",
      "start_day": "2015-07-29",
      "start_dt": "2015-07-29 18:30:00",
      "start_time": "18:30:00",
      "venue_zip": "85710",
      "bernieID": 472
    },
    {
      "attendee_count": 100,
      "capacity": "100",
      "id": "790",
      "id_obfuscated": "wyt",
      "latitude": "37.764046",
      "longitude": "-122.421814",
      "name": "Bay Area Blondie's for Bernie 2016",
      "start_day": "2015-07-29",
      "start_dt": "2015-07-29 18:30:00",
      "start_time": "18:30:00",
      "venue_zip": "94110",
      "bernieID": 473
    },
    {
      "attendee_count": 45,
      "capacity": "45",
      "id": "1562",
      "id_obfuscated": "4jvkv",
      "latitude": "32.947483",
      "longitude": "-116.963440",
      "name": "Poway-Lakeside for Bernie 2016",
      "start_day": "2015-07-29",
      "start_dt": "2015-07-29 18:30:00",
      "start_time": "18:30:00",
      "venue_zip": "92040",
      "bernieID": 474
    },
    {
      "attendee_count": 12,
      "capacity": "12",
      "id": "2586",
      "id_obfuscated": "4v7dq",
      "latitude": "38.572353",
      "longitude": "-121.484718",
      "name": "Bernie Forum in Midtown",
      "start_day": "2015-07-29",
      "start_dt": "2015-07-29 18:30:00",
      "start_time": "18:30:00",
      "venue_zip": "95811",
      "bernieID": 475
    },
    {
      "attendee_count": 0,
      "capacity": "5",
      "id": "3098",
      "id_obfuscated": "4vx4l",
      "latitude": "37.161400",
      "longitude": "-113.037697",
      "name": "Bernie Sanders Event",
      "start_day": "2015-07-29",
      "start_dt": "2015-07-29 19:30:00",
      "start_time": "19:30:00",
      "venue_zip": "84763",
      "bernieID": 476
    },
    {
      "attendee_count": 11,
      "capacity": "15",
      "id": "3354",
      "id_obfuscated": "4vx2z",
      "latitude": "40.738194",
      "longitude": "-111.924637",
      "name": "Salt Lake Grassroots Organize for Bernie",
      "start_day": "2015-07-29",
      "start_dt": "2015-07-29 19:30:00",
      "start_time": "19:30:00",
      "venue_zip": "84104",
      "bernieID": 477
    },
    {
      "attendee_count": 12,
      "capacity": "12",
      "id": "1307",
      "id_obfuscated": "4jvbf",
      "latitude": "47.901203",
      "longitude": "-122.252472",
      "name": "Bernie Kickoff in South Everett",
      "start_day": "2015-07-29",
      "start_dt": "2015-07-29 18:30:00",
      "start_time": "18:30:00",
      "venue_zip": "98204",
      "bernieID": 478
    },
    {
      "attendee_count": 12,
      "capacity": "12",
      "id": "1563",
      "id_obfuscated": "4jvkj",
      "latitude": "21.364723",
      "longitude": "-158.083649",
      "name": "Bernie...Not The Billionaires",
      "start_day": "2015-07-29",
      "start_dt": "2015-07-29 15:30:00",
      "start_time": "15:30:00",
      "venue_zip": "96707",
      "bernieID": 479
    },
    {
      "attendee_count": 40,
      "capacity": "40",
      "id": "1566",
      "id_obfuscated": "4jvc7",
      "latitude": "35.675034",
      "longitude": "-105.985977",
      "name": "Santa Fe for Sanders",
      "start_day": "2015-07-29",
      "start_dt": "2015-07-29 19:30:00",
      "start_time": "19:30:00",
      "venue_zip": "87507",
      "bernieID": 480
    },
    {
      "attendee_count": 9,
      "capacity": "12",
      "id": "1823",
      "id_obfuscated": "4jjry",
      "latitude": "33.572803",
      "longitude": "-112.262703",
      "name": "Peoria, AZ for Bernie",
      "start_day": "2015-07-29",
      "start_dt": "2015-07-29 18:30:00",
      "start_time": "18:30:00",
      "venue_zip": "85345",
      "bernieID": 481
    },
    {
      "attendee_count": 51,
      "capacity": "0",
      "id": "2848",
      "id_obfuscated": "4v7ht",
      "latitude": "37.331219",
      "longitude": "-119.652618",
      "name": "Sierra Foothills for Bernie Sanders",
      "start_day": "2015-07-29",
      "start_dt": "2015-07-29 18:30:00",
      "start_time": "18:30:00",
      "venue_zip": "93644",
      "bernieID": 482
    },
    {
      "attendee_count": 11,
      "capacity": "0",
      "id": "3616",
      "id_obfuscated": "4vx5y",
      "latitude": "33.375221",
      "longitude": "-111.650314",
      "name": "#VivaBernie Meetup hosted by Michelle Brimley",
      "start_day": "2015-07-29",
      "start_dt": "2015-07-29 18:30:00",
      "start_time": "18:30:00",
      "venue_zip": "85209",
      "bernieID": 483
    },
    {
      "attendee_count": 109,
      "capacity": "160",
      "id": "289",
      "id_obfuscated": "wr4k",
      "latitude": "48.117683",
      "longitude": "-122.760796",
      "name": "Jefferson County WA Meet-up for Bernie Sanders Supporters",
      "start_day": "2015-07-29",
      "start_dt": "2015-07-29 18:30:00",
      "start_time": "18:30:00",
      "venue_zip": "98368",
      "bernieID": 484
    },
    {
      "attendee_count": 40,
      "capacity": "50",
      "id": "547",
      "id_obfuscated": "ww4",
      "latitude": "40.013187",
      "longitude": "-105.234383",
      "name": "Boulder Bern!",
      "start_day": "2015-07-29",
      "start_dt": "2015-07-29 19:30:00",
      "start_time": "19:30:00",
      "venue_zip": "80303",
      "bernieID": 485
    },
    {
      "attendee_count": 16,
      "capacity": "16",
      "id": "3108",
      "id_obfuscated": "4vx4b",
      "latitude": "36.218868",
      "longitude": "-86.728020",
      "name": "East Nashville Bernie Kickoff",
      "start_day": "2015-07-29",
      "start_dt": "2015-07-29 20:30:00",
      "start_time": "20:30:00",
      "venue_zip": "37216",
      "bernieID": 486
    },
    {
      "attendee_count": 17,
      "capacity": "20",
      "id": "297",
      "id_obfuscated": "wrgt",
      "latitude": "47.723206",
      "longitude": "-122.332298",
      "name": "Organize North Haller Lake for Caucuses",
      "start_day": "2015-07-29",
      "start_dt": "2015-07-29 18:30:00",
      "start_time": "18:30:00",
      "venue_zip": "98133",
      "bernieID": 487
    },
    {
      "attendee_count": 10,
      "capacity": "10",
      "id": "3371",
      "id_obfuscated": "4vx9s",
      "latitude": "34.186455",
      "longitude": "-118.468781",
      "name": "Mid Valley LA for Sanders! (Van Nuys, Sherman Oaks)",
      "start_day": "2015-07-29",
      "start_dt": "2015-07-29 18:30:00",
      "start_time": "18:30:00",
      "venue_zip": "91406",
      "bernieID": 488
    },
    {
      "attendee_count": 40,
      "capacity": "40",
      "id": "1838",
      "id_obfuscated": "4jjvt",
      "latitude": "34.105846",
      "longitude": "-118.368416",
      "name": "Geeks for Bernie meeting at the Los Angeles LGBT Center",
      "start_day": "2015-07-29",
      "start_dt": "2015-07-29 18:30:00",
      "start_time": "18:30:00",
      "venue_zip": "90038",
      "bernieID": 489
    },
    {
      "attendee_count": 36,
      "capacity": "36",
      "id": "2094",
      "id_obfuscated": "4v533",
      "latitude": "37.964745",
      "longitude": "-122.305824",
      "name": "West County Bernie 2016 Kickoff",
      "start_day": "2015-07-29",
      "start_dt": "2015-07-29 18:30:00",
      "start_time": "18:30:00",
      "venue_zip": "94803",
      "bernieID": 490
    },
    {
      "attendee_count": 18,
      "capacity": "25",
      "id": "3122",
      "id_obfuscated": "4vxgw",
      "latitude": "19.707092",
      "longitude": "-155.069611",
      "name": "\"Hilo\" Bernie Sanders for President \"The REAL DEAL\"... July 29.. 3pm to 5:30 pm",
      "start_day": "2015-07-29",
      "start_dt": "2015-07-29 15:30:00",
      "start_time": "15:30:00",
      "venue_zip": "96720",
      "bernieID": 491
    },
    {
      "attendee_count": 25,
      "capacity": "25",
      "id": "1076",
      "id_obfuscated": "4jvt3",
      "latitude": "37.810070",
      "longitude": "-122.295235",
      "name": "Barbecue for Bernie",
      "start_day": "2015-07-29",
      "start_dt": "2015-07-29 18:30:00",
      "start_time": "18:30:00",
      "venue_zip": "94607",
      "bernieID": 492
    },
    {
      "attendee_count": 40,
      "capacity": "40",
      "id": "1334",
      "id_obfuscated": "4jvsb",
      "latitude": "45.508652",
      "longitude": "-122.659584",
      "name": "Bern Baby Bern - Inner SE Bernie Organizing Party",
      "start_day": "2015-07-29",
      "start_dt": "2015-07-29 18:30:00",
      "start_time": "18:30:00",
      "venue_zip": "97214",
      "bernieID": 493
    },
    {
      "attendee_count": 52,
      "capacity": "60",
      "id": "568",
      "id_obfuscated": "wj7",
      "latitude": "43.113457",
      "longitude": "-124.430115",
      "name": "Bandon for Bernie",
      "start_day": "2015-07-29",
      "start_dt": "2015-07-29 18:30:00",
      "start_time": "18:30:00",
      "venue_zip": "97411",
      "bernieID": 494
    },
    {
      "attendee_count": 40,
      "capacity": "40",
      "id": "1337",
      "id_obfuscated": "4jvsz",
      "latitude": "33.788246",
      "longitude": "-116.482170",
      "name": "Coachella Valley for Bernie Sanders!",
      "start_day": "2015-07-29",
      "start_dt": "2015-07-29 18:30:00",
      "start_time": "18:30:00",
      "venue_zip": "92234",
      "bernieID": 495
    },
    {
      "attendee_count": 15,
      "capacity": "15",
      "id": "2875",
      "id_obfuscated": "4v75t",
      "latitude": "34.129112",
      "longitude": "-118.142776",
      "name": "Bernie Believers Meet-N-Greet in Madison Heights",
      "start_day": "2015-07-29",
      "start_dt": "2015-07-29 18:30:00",
      "start_time": "18:30:00",
      "venue_zip": "91106",
      "bernieID": 496
    },
    {
      "attendee_count": 148,
      "capacity": "150",
      "id": "2620",
      "id_obfuscated": "4v72l",
      "latitude": "33.414898",
      "longitude": "-111.910866",
      "name": "Tempe \"Feel the Bern\" on Apache Blvd.",
      "start_day": "2015-07-29",
      "start_dt": "2015-07-29 18:30:00",
      "start_time": "18:30:00",
      "venue_zip": "85281",
      "bernieID": 497
    },
    {
      "attendee_count": 35,
      "capacity": "35",
      "id": "1087",
      "id_obfuscated": "4jvr4",
      "latitude": "47.515808",
      "longitude": "-122.026276",
      "name": "Bernie Sanders for President organizing meeting - Issaquah, WA",
      "start_day": "2015-07-29",
      "start_dt": "2015-07-29 18:30:00",
      "start_time": "18:30:00",
      "venue_zip": "98027",
      "bernieID": 498
    },
    {
      "attendee_count": 6,
      "capacity": "6",
      "id": "1343",
      "id_obfuscated": "4jvsc",
      "latitude": "33.191326",
      "longitude": "-117.264626",
      "name": "Vista, CA Bernie Sanders Campaign Organization",
      "start_day": "2015-07-29",
      "start_dt": "2015-07-29 18:30:00",
      "start_time": "18:30:00",
      "venue_zip": "92081",
      "bernieID": 499
    },
    {
      "attendee_count": 70,
      "capacity": "70",
      "id": "833",
      "id_obfuscated": "ws4",
      "latitude": "37.459286",
      "longitude": "-122.152557",
      "name": "Menlo Park CA Supports Bernie Sanders!",
      "start_day": "2015-07-29",
      "start_dt": "2015-07-29 18:30:00",
      "start_time": "18:30:00",
      "venue_zip": "94025",
      "bernieID": 500
    },
    {
      "attendee_count": 14,
      "capacity": "20",
      "id": "1089",
      "id_obfuscated": "4jrhm",
      "latitude": "35.664860",
      "longitude": "-120.598137",
      "name": "Paso Roblians for Bernie",
      "start_day": "2015-07-29",
      "start_dt": "2015-07-29 18:30:00",
      "start_time": "18:30:00",
      "venue_zip": "93446",
      "bernieID": 501
    },
    {
      "attendee_count": 12,
      "capacity": "20",
      "id": "2625",
      "id_obfuscated": "4v7st",
      "latitude": "21.576180",
      "longitude": "-158.108917",
      "name": "North Shore Get Together for supporters of Bernie Sanders",
      "start_day": "2015-07-29",
      "start_dt": "2015-07-29 15:30:00",
      "start_time": "15:30:00",
      "venue_zip": "96712",
      "bernieID": 502
    },
    {
      "attendee_count": 12,
      "capacity": "20",
      "id": "3138",
      "id_obfuscated": "4vxvt",
      "latitude": "37.056339",
      "longitude": "-122.111977",
      "name": "Santa Cruz Mountains Progressives meet-up (Bonny Doon)",
      "start_day": "2015-07-29",
      "start_dt": "2015-07-29 18:30:00",
      "start_time": "18:30:00",
      "venue_zip": "95060",
      "bernieID": 503
    },
    {
      "attendee_count": 60,
      "capacity": "75",
      "id": "835",
      "id_obfuscated": "wsj",
      "latitude": "37.742825",
      "longitude": "-122.427689",
      "name": "Let's go Bernie! (San Francisco)",
      "start_day": "2015-07-29",
      "start_dt": "2015-07-29 18:30:00",
      "start_time": "18:30:00",
      "venue_zip": "94131",
      "bernieID": 504
    },
    {
      "attendee_count": 2,
      "capacity": "6",
      "id": "2886",
      "id_obfuscated": "4v7ks",
      "latitude": "40.181553",
      "longitude": "-111.601013",
      "name": "#FeelTheBern Organizing Event",
      "start_day": "2015-07-29",
      "start_dt": "2015-07-29 19:30:00",
      "start_time": "19:30:00",
      "venue_zip": "84663",
      "bernieID": 505
    },
    {
      "attendee_count": 20,
      "capacity": "20",
      "id": "1353",
      "id_obfuscated": "4jvg8",
      "latitude": "37.924698",
      "longitude": "-122.030426",
      "name": "Walnut Creek for Bernie",
      "start_day": "2015-07-29",
      "start_dt": "2015-07-29 18:30:00",
      "start_time": "18:30:00",
      "venue_zip": "94598",
      "bernieID": 506
    },
    {
      "attendee_count": 15,
      "capacity": "15",
      "id": "2889",
      "id_obfuscated": "4v7k3",
      "latitude": "34.192303",
      "longitude": "-118.592789",
      "name": "Woodland Hills/ Canoga Park Organizational Meeting for the Bernie Sanders Campaign",
      "start_day": "2015-07-29",
      "start_dt": "2015-07-29 18:30:00",
      "start_time": "18:30:00",
      "venue_zip": "91303",
      "bernieID": 507
    },
    {
      "attendee_count": 8,
      "capacity": "35",
      "id": "3658",
      "id_obfuscated": "4vx3l",
      "latitude": "40.738754",
      "longitude": "-111.936043",
      "name": "Westsiders for Bernie @ Wasatch Commons",
      "start_day": "2015-07-29",
      "start_dt": "2015-07-29 19:30:00",
      "start_time": "19:30:00",
      "venue_zip": "84104",
      "bernieID": 508
    },
    {
      "attendee_count": 62,
      "capacity": "60",
      "id": "2125",
      "id_obfuscated": "4v5c4",
      "latitude": "34.244186",
      "longitude": "-118.770988",
      "name": "Bernie with the Bandini's",
      "start_day": "2015-07-29",
      "start_dt": "2015-07-29 18:30:00",
      "start_time": "18:30:00",
      "venue_zip": "93065",
      "bernieID": 509
    },
    {
      "attendee_count": 0,
      "capacity": "30",
      "id": "3405",
      "id_obfuscated": "4vxp8",
      "latitude": "57.052849",
      "longitude": "-135.327866",
      "name": "Brownies With Bernie",
      "start_day": "2015-07-29",
      "start_dt": "2015-07-29 17:30:00",
      "start_time": "17:30:00",
      "venue_zip": "99835",
      "bernieID": 510
    },
    {
      "attendee_count": 16,
      "capacity": "20",
      "id": "2896",
      "id_obfuscated": "4v7zr",
      "latitude": "39.644985",
      "longitude": "-106.594200",
      "name": "Bernie Sanders Organizing Event for Vail Valley",
      "start_day": "2015-07-29",
      "start_dt": "2015-07-29 19:30:00",
      "start_time": "19:30:00",
      "venue_zip": "81632",
      "bernieID": 511
    },
    {
      "attendee_count": 39,
      "capacity": "40",
      "id": "594",
      "id_obfuscated": "wtt",
      "latitude": "35.116936",
      "longitude": "-106.565178",
      "name": "Albuquerque People for Bernie Organizing meeting",
      "start_day": "2015-07-29",
      "start_dt": "2015-07-29 19:30:00",
      "start_time": "19:30:00",
      "venue_zip": "87110",
      "bernieID": 512
    },
    {
      "attendee_count": 76,
      "capacity": "80",
      "id": "1876",
      "id_obfuscated": "4jv7c",
      "latitude": "39.608479",
      "longitude": "-104.922928",
      "name": "Greenwood Village for Bernie!",
      "start_day": "2015-07-29",
      "start_dt": "2015-07-29 19:30:00",
      "start_time": "19:30:00",
      "venue_zip": "80121",
      "bernieID": 513
    },
    {
      "attendee_count": 96,
      "capacity": "100",
      "id": "597",
      "id_obfuscated": "wtl",
      "latitude": "35.080006",
      "longitude": "-106.645264",
      "name": "Burque Berning",
      "start_day": "2015-07-29",
      "start_dt": "2015-07-29 19:30:00",
      "start_time": "19:30:00",
      "venue_zip": "87102",
      "bernieID": 514
    },
    {
      "attendee_count": 1,
      "capacity": "15",
      "id": "853",
      "id_obfuscated": "wbz",
      "latitude": "33.488964",
      "longitude": "-117.696701",
      "name": "Dana Point for Bernie Sanders at Paul's",
      "start_day": "2015-07-29",
      "start_dt": "2015-07-29 18:30:00",
      "start_time": "18:30:00",
      "venue_zip": "92629",
      "bernieID": 515
    },
    {
      "attendee_count": 14,
      "capacity": "20",
      "id": "3162",
      "id_obfuscated": "4vxv5",
      "latitude": "40.087734",
      "longitude": "-105.255196",
      "name": "Bernie organizing meeting just north of Boulder; Lake Valley",
      "start_day": "2015-07-29",
      "start_dt": "2015-07-29 19:30:00",
      "start_time": "19:30:00",
      "venue_zip": "80503",
      "bernieID": 516
    },
    {
      "attendee_count": 10,
      "capacity": "10",
      "id": "3421",
      "id_obfuscated": "4vxy4",
      "latitude": "39.809078",
      "longitude": "-105.108978",
      "name": "Arvada West for Bernie",
      "start_day": "2015-07-29",
      "start_dt": "2015-07-29 19:30:00",
      "start_time": "19:30:00",
      "venue_zip": "80004",
      "bernieID": 517
    },
    {
      "attendee_count": 3,
      "capacity": "15",
      "id": "2910",
      "id_obfuscated": "4v7zl",
      "latitude": "37.790630",
      "longitude": "-122.209549",
      "name": "Organizing meeting for Bernie Sanders in Oakland area",
      "start_day": "2015-07-29",
      "start_dt": "2015-07-29 18:30:00",
      "start_time": "18:30:00",
      "venue_zip": "94602",
      "bernieID": 518
    },
    {
      "attendee_count": 12,
      "capacity": "12",
      "id": "863",
      "id_obfuscated": "wbx",
      "latitude": "32.267605",
      "longitude": "-110.738937",
      "name": "Tanque Verde Bernie Meet-Up",
      "start_day": "2015-07-29",
      "start_dt": "2015-07-29 18:30:00",
      "start_time": "18:30:00",
      "venue_zip": "85749",
      "bernieID": 519
    },
    {
      "attendee_count": 20,
      "capacity": "20",
      "id": "1632",
      "id_obfuscated": "4jv87",
      "latitude": "37.230270",
      "longitude": "-121.814682",
      "name": "San Jose Organizing Kick off Event",
      "start_day": "2015-07-29",
      "start_dt": "2015-07-29 18:30:00",
      "start_time": "18:30:00",
      "venue_zip": "95123",
      "bernieID": 520
    },
    {
      "attendee_count": 12,
      "capacity": "12",
      "id": "1888",
      "id_obfuscated": "4jvxp",
      "latitude": "37.544228",
      "longitude": "-122.308807",
      "name": "25th Avenue San Mateo Sanders meeting",
      "start_day": "2015-07-29",
      "start_dt": "2015-07-29 18:30:00",
      "start_time": "18:30:00",
      "venue_zip": "94403",
      "bernieID": 521
    },
    {
      "attendee_count": 3,
      "capacity": "15",
      "id": "3427",
      "id_obfuscated": "4vxyk",
      "latitude": "41.176964",
      "longitude": "-112.068756",
      "name": "Roy Area Viewing Party!",
      "start_day": "2015-07-29",
      "start_dt": "2015-07-29 19:30:00",
      "start_time": "19:30:00",
      "venue_zip": "84067",
      "bernieID": 522
    },
    {
      "attendee_count": 6,
      "capacity": "0",
      "id": "3173",
      "id_obfuscated": "4vxjt",
      "latitude": "48.670799",
      "longitude": "-119.278900",
      "name": "North Okanogan, Meet Bernie Sanders",
      "start_day": "2015-07-29",
      "start_dt": "2015-07-29 18:30:00",
      "start_time": "18:30:00",
      "venue_zip": "98855",
      "bernieID": 523
    },
    {
      "attendee_count": 20,
      "capacity": "20",
      "id": "870",
      "id_obfuscated": "wpp",
      "latitude": "45.520729",
      "longitude": "-122.520950",
      "name": "East Portland All American Pie tasting for Bernie",
      "start_day": "2015-07-29",
      "start_dt": "2015-07-29 18:30:00",
      "start_time": "18:30:00",
      "venue_zip": "97233",
      "bernieID": 524
    },
    {
      "attendee_count": 12,
      "capacity": "12",
      "id": "1126",
      "id_obfuscated": "4jr55",
      "latitude": "39.516350",
      "longitude": "-119.801170",
      "name": "Reno Wells Area Bernie Sanders Organization Meeting",
      "start_day": "2015-07-29",
      "start_dt": "2015-07-29 18:30:00",
      "start_time": "18:30:00",
      "venue_zip": "89502",
      "bernieID": 525
    },
    {
      "attendee_count": 35,
      "capacity": "35",
      "id": "2406",
      "id_obfuscated": "4v7r8",
      "latitude": "35.234676",
      "longitude": "-106.620422",
      "name": "Central New Mexico for Bernie",
      "start_day": "2015-07-29",
      "start_dt": "2015-07-29 19:30:00",
      "start_time": "19:30:00",
      "venue_zip": "87048",
      "bernieID": 526
    },
    {
      "attendee_count": 15,
      "capacity": "30",
      "id": "3430",
      "id_obfuscated": "4vxy2",
      "latitude": "45.982304",
      "longitude": "-112.508003",
      "name": "Butte, MT July 29 Organizing Meeting",
      "start_day": "2015-07-29",
      "start_dt": "2015-07-29 19:30:00",
      "start_time": "19:30:00",
      "venue_zip": "59701",
      "bernieID": 527
    },
    {
      "attendee_count": 4,
      "capacity": "15",
      "id": "3686",
      "id_obfuscated": "4vxmt",
      "latitude": "36.915852",
      "longitude": "-121.765053",
      "name": "Watsonville Potluck for Bernie Sanders",
      "start_day": "2015-07-29",
      "start_dt": "2015-07-29 18:30:00",
      "start_time": "18:30:00",
      "venue_zip": "95076",
      "bernieID": 528
    },
    {
      "attendee_count": 5,
      "capacity": "80",
      "id": "2407",
      "id_obfuscated": "4v7rf",
      "latitude": "47.695522",
      "longitude": "-122.790428",
      "name": "Coyle Community Center Meet-up for Bernie Sanders Supporters",
      "start_day": "2015-07-29",
      "start_dt": "2015-07-29 18:30:00",
      "start_time": "18:30:00",
      "venue_zip": "98376",
      "bernieID": 529
    },
    {
      "attendee_count": 30,
      "capacity": "30",
      "id": "617",
      "id_obfuscated": "wv4",
      "latitude": "37.378117",
      "longitude": "-122.091019",
      "name": "Meet Bernie Sanders in Mountain View and learn why you should elect him to be our next president [Sorry, Event FULL]",
      "start_day": "2015-07-29",
      "start_dt": "2015-07-29 18:30:00",
      "start_time": "18:30:00",
      "venue_zip": "94040",
      "bernieID": 530
    },
    {
      "attendee_count": 15,
      "capacity": "25",
      "id": "1641",
      "id_obfuscated": "4jvfl",
      "latitude": "47.264084",
      "longitude": "-122.452240",
      "name": "Pierce County Educators for Sanders",
      "start_day": "2015-07-29",
      "start_dt": "2015-07-29 18:30:00",
      "start_time": "18:30:00",
      "venue_zip": "98403",
      "bernieID": 531
    },
    {
      "attendee_count": 27,
      "capacity": "0",
      "id": "1648",
      "id_obfuscated": "4jvf2",
      "latitude": "32.833939",
      "longitude": "-115.571770",
      "name": "Imperial Valley for Bernie!",
      "start_day": "2015-07-29",
      "start_dt": "2015-07-29 18:30:00",
      "start_time": "18:30:00",
      "venue_zip": "92251",
      "bernieID": 532
    },
    {
      "attendee_count": 31,
      "capacity": "75",
      "id": "625",
      "id_obfuscated": "wrq",
      "latitude": "45.422386",
      "longitude": "-122.513077",
      "name": "Feel the Bern in Happy Valley",
      "start_day": "2015-07-29",
      "start_dt": "2015-07-29 18:30:00",
      "start_time": "18:30:00",
      "venue_zip": "97015",
      "bernieID": 533
    },
    {
      "attendee_count": 86,
      "capacity": "100",
      "id": "2163",
      "id_obfuscated": "4v5k5",
      "latitude": "44.962933",
      "longitude": "-124.017456",
      "name": "Oregon Coast Kickoff for Bernie, at The Eventuary in Lincoln City",
      "start_day": "2015-07-29",
      "start_dt": "2015-07-29 18:30:00",
      "start_time": "18:30:00",
      "venue_zip": "97367",
      "bernieID": 534
    },
    {
      "attendee_count": 81,
      "capacity": "100",
      "id": "1652",
      "id_obfuscated": "4jvfs",
      "latitude": "35.276386",
      "longitude": "-120.656631",
      "name": "Bernie 2016 Kickoff Community Potluck @ The Establishment",
      "start_day": "2015-07-29",
      "start_dt": "2015-07-29 18:30:00",
      "start_time": "18:30:00",
      "venue_zip": "93401",
      "bernieID": 535
    },
    {
      "attendee_count": 34,
      "capacity": "40",
      "id": "886",
      "id_obfuscated": "wsm",
      "latitude": "33.080509",
      "longitude": "-116.886826",
      "name": "Ramona Bernie for President Organizing Meeting",
      "start_day": "2015-07-29",
      "start_dt": "2015-07-29 18:30:00",
      "start_time": "18:30:00",
      "venue_zip": "92065",
      "bernieID": 536
    },
    {
      "attendee_count": 11,
      "capacity": "11",
      "id": "2680",
      "id_obfuscated": "4v7yr",
      "latitude": "45.529388",
      "longitude": "-122.488609",
      "name": "#FeelTheBern in Gresham with Shari&rsquo;s Pies tea & coffee",
      "start_day": "2015-07-29",
      "start_dt": "2015-07-29 18:30:00",
      "start_time": "18:30:00",
      "venue_zip": "97230",
      "bernieID": 537
    },
    {
      "attendee_count": 30,
      "capacity": "30",
      "id": "890",
      "id_obfuscated": "wsx",
      "latitude": "37.133553",
      "longitude": "-122.109192",
      "name": "Who is Bernie Sanders? Candidate and Campaign \"Get to know you\"",
      "start_day": "2015-07-29",
      "start_dt": "2015-07-29 18:30:00",
      "start_time": "18:30:00",
      "venue_zip": "95006",
      "bernieID": 538
    },
    {
      "attendee_count": 30,
      "capacity": "30",
      "id": "1658",
      "id_obfuscated": "4jvf5",
      "latitude": "33.930561",
      "longitude": "-117.922241",
      "name": "Brea feels the Bern!",
      "start_day": "2015-07-29",
      "start_dt": "2015-07-29 18:30:00",
      "start_time": "18:30:00",
      "venue_zip": "92821",
      "bernieID": 539
    },
    {
      "attendee_count": 0,
      "capacity": "20",
      "id": "3706",
      "id_obfuscated": "4vxhr",
      "latitude": "39.250656",
      "longitude": "-106.287415",
      "name": "Stand with Bernie at 10,200' in Leadville/Lake County!",
      "start_day": "2015-07-29",
      "start_dt": "2015-07-29 19:30:00",
      "start_time": "19:30:00",
      "venue_zip": "80461",
      "bernieID": 540
    },
    {
      "attendee_count": 1,
      "capacity": "15",
      "id": "3712",
      "id_obfuscated": "4jtrt",
      "latitude": "34.093403",
      "longitude": "-118.297356",
      "name": "Kimmy and Brian's totally awesome Bernie sanders support meeting yo!",
      "start_day": "2015-07-29",
      "start_dt": "2015-07-29 18:30:00",
      "start_time": "18:30:00",
      "venue_zip": "90038",
      "bernieID": 541
    },
    {
      "attendee_count": 50,
      "capacity": "50",
      "id": "2689",
      "id_obfuscated": "4v7fj",
      "latitude": "37.920189",
      "longitude": "-122.351646",
      "name": "Bernin' Down the House",
      "start_day": "2015-07-29",
      "start_dt": "2015-07-29 18:30:00",
      "start_time": "18:30:00",
      "venue_zip": "94804",
      "bernieID": 542
    },
    {
      "attendee_count": 45,
      "capacity": "45",
      "id": "2178",
      "id_obfuscated": "4v574",
      "latitude": "47.760044",
      "longitude": "-122.172432",
      "name": "Bothell/Beardsley area",
      "start_day": "2015-07-29",
      "start_dt": "2015-07-29 18:30:00",
      "start_time": "18:30:00",
      "venue_zip": "98021",
      "bernieID": 543
    },
    {
      "attendee_count": 14,
      "capacity": "20",
      "id": "3202",
      "id_obfuscated": "4vxbj",
      "latitude": "36.962105",
      "longitude": "-122.049828",
      "name": "UCSC Students for Bernie",
      "start_day": "2015-07-29",
      "start_dt": "2015-07-29 18:30:00",
      "start_time": "18:30:00",
      "venue_zip": "95060",
      "bernieID": 544
    },
    {
      "attendee_count": 22,
      "capacity": "100",
      "id": "3458",
      "id_obfuscated": "4vxc8",
      "latitude": "36.978176",
      "longitude": "-122.011551",
      "name": "Santa Cruz midtown Kick-off for Bernie",
      "start_day": "2015-07-29",
      "start_dt": "2015-07-29 18:30:00",
      "start_time": "18:30:00",
      "venue_zip": "95062",
      "bernieID": 545
    },
    {
      "attendee_count": 30,
      "capacity": "30",
      "id": "900",
      "id_obfuscated": "wfp",
      "latitude": "39.729729",
      "longitude": "-105.001610",
      "name": "Make a Difference in Denver: Support Bernie Sanders for President",
      "start_day": "2015-07-29",
      "start_dt": "2015-07-29 19:30:00",
      "start_time": "19:30:00",
      "venue_zip": "80204",
      "bernieID": 546
    },
    {
      "attendee_count": 74,
      "capacity": "50",
      "id": "1412",
      "id_obfuscated": "4jvdg",
      "latitude": "47.981293",
      "longitude": "-122.208557",
      "name": "Bernie for President 2016 - Everett Organizing Meeting",
      "start_day": "2015-07-29",
      "start_dt": "2015-07-29 18:30:00",
      "start_time": "18:30:00",
      "venue_zip": "98201",
      "bernieID": 547
    },
    {
      "attendee_count": 65,
      "capacity": "65",
      "id": "1414",
      "id_obfuscated": "4jvdq",
      "latitude": "39.767113",
      "longitude": "-104.977776",
      "name": "Denver Metro Bernie Sanders Kickoff Meeting",
      "start_day": "2015-07-29",
      "start_dt": "2015-07-29 19:30:00",
      "start_time": "19:30:00",
      "venue_zip": "80205",
      "bernieID": 548
    },
    {
      "attendee_count": 20,
      "capacity": "20",
      "id": "648",
      "id_obfuscated": "wqv",
      "latitude": "39.610901",
      "longitude": "-104.687698",
      "name": "Meet Bernie in Centennial, CO",
      "start_day": "2015-07-29",
      "start_dt": "2015-07-29 19:30:00",
      "start_time": "19:30:00",
      "venue_zip": "80016",
      "bernieID": 549
    },
    {
      "attendee_count": 51,
      "capacity": "51",
      "id": "394",
      "id_obfuscated": "wrby",
      "latitude": "34.623074",
      "longitude": "-117.855270",
      "name": "Antelope Valley for Bernie Sanders",
      "start_day": "2015-07-29",
      "start_dt": "2015-07-29 18:30:00",
      "start_time": "18:30:00",
      "venue_zip": "93535",
      "bernieID": 550
    },
    {
      "attendee_count": 10,
      "capacity": "10",
      "id": "1421",
      "id_obfuscated": "4jvd9",
      "latitude": "47.401768",
      "longitude": "-122.324287",
      "name": "Sanders Supporters Des Moines WA Area",
      "start_day": "2015-07-29",
      "start_dt": "2015-07-29 18:30:00",
      "start_time": "18:30:00",
      "venue_zip": "98198",
      "bernieID": 551
    },
    {
      "attendee_count": 23,
      "capacity": "50",
      "id": "2701",
      "id_obfuscated": "4v7fl",
      "latitude": "34.045162",
      "longitude": "-118.214394",
      "name": "FEEL THE BERN / BOYLE HEIGHTS / FACHAPATOTO",
      "start_day": "2015-07-29",
      "start_dt": "2015-07-29 18:30:00",
      "start_time": "18:30:00",
      "venue_zip": "90033",
      "bernieID": 552
    },
    {
      "attendee_count": 15,
      "capacity": "15",
      "id": "3213",
      "id_obfuscated": "4vxbg",
      "latitude": "34.136967",
      "longitude": "-118.392822",
      "name": "Studio City for Bernie!  Event 3",
      "start_day": "2015-07-29",
      "start_dt": "2015-07-29 18:30:00",
      "start_time": "18:30:00",
      "venue_zip": "91604",
      "bernieID": 553
    },
    {
      "attendee_count": 20,
      "capacity": "20",
      "id": "1678",
      "id_obfuscated": "4jvhv",
      "latitude": "43.656498",
      "longitude": "-116.234909",
      "name": "Northwest Boise Organizing Meeting for Bernie",
      "start_day": "2015-07-29",
      "start_dt": "2015-07-29 19:30:00",
      "start_time": "19:30:00",
      "venue_zip": "83703",
      "bernieID": 554
    },
    {
      "attendee_count": 116,
      "capacity": "140",
      "id": "2958",
      "id_obfuscated": "4v7x3",
      "latitude": "34.021252",
      "longitude": "-118.287102",
      "name": "TROJANS FOR BERNIE MIXER & INFO SESSION - USC - Los Angeles, CA 90089",
      "start_day": "2015-07-29",
      "start_dt": "2015-07-29 18:30:00",
      "start_time": "18:30:00",
      "venue_zip": "90089",
      "bernieID": 555
    },
    {
      "attendee_count": 23,
      "capacity": "30",
      "id": "2961",
      "id_obfuscated": "4vxt4",
      "latitude": "43.380379",
      "longitude": "-124.228432",
      "name": "Coos Bay Area Friends of Bernie Sanders",
      "start_day": "2015-07-29",
      "start_dt": "2015-07-29 18:30:00",
      "start_time": "18:30:00",
      "venue_zip": "97420",
      "bernieID": 556
    },
    {
      "attendee_count": 65,
      "capacity": "65",
      "id": "2966",
      "id_obfuscated": "4vxtv",
      "latitude": "47.550827",
      "longitude": "-122.277466",
      "name": "Bernie & Beer! (Hillman City/South Seattle/Rainier, at Spinnaker Bay Brewery)",
      "start_day": "2015-07-29",
      "start_dt": "2015-07-29 18:30:00",
      "start_time": "18:30:00",
      "venue_zip": "98118",
      "bernieID": 557
    },
    {
      "attendee_count": 30,
      "capacity": "30",
      "id": "2968",
      "id_obfuscated": "4vxty",
      "latitude": "33.567963",
      "longitude": "-112.065186",
      "name": "North Mountain Brews and Bernie",
      "start_day": "2015-07-29",
      "start_dt": "2015-07-29 18:30:00",
      "start_time": "18:30:00",
      "venue_zip": "85020",
      "bernieID": 558
    },
    {
      "attendee_count": 9,
      "capacity": "0",
      "id": "665",
      "id_obfuscated": "wl2",
      "latitude": "39.993599",
      "longitude": "-105.843063",
      "name": "Grand County Democrats for Bernie",
      "start_day": "2015-07-29",
      "start_dt": "2015-07-29 19:30:00",
      "start_time": "19:30:00",
      "venue_zip": "80478",
      "bernieID": 559
    },
    {
      "attendee_count": 15,
      "capacity": "15",
      "id": "2975",
      "id_obfuscated": "4vxtp",
      "latitude": "37.611362",
      "longitude": "-122.477913",
      "name": "Beers & BBQ for Bernie by the Beach",
      "start_day": "2015-07-29",
      "start_dt": "2015-07-29 18:30:00",
      "start_time": "18:30:00",
      "venue_zip": "94044",
      "bernieID": 560
    },
    {
      "attendee_count": 16,
      "capacity": "20",
      "id": "2976",
      "id_obfuscated": "4vxtz",
      "latitude": "34.167080",
      "longitude": "-117.258270",
      "name": "San Bernardino for Sanders",
      "start_day": "2015-07-29",
      "start_dt": "2015-07-29 18:30:00",
      "start_time": "18:30:00",
      "venue_zip": "92404",
      "bernieID": 561
    },
    {
      "attendee_count": 29,
      "capacity": "0",
      "id": "929",
      "id_obfuscated": "wcd",
      "latitude": "32.203644",
      "longitude": "-111.023193",
      "name": "Tucson 85713 Organizing Meeting",
      "start_day": "2015-07-29",
      "start_dt": "2015-07-29 18:30:00",
      "start_time": "18:30:00",
      "venue_zip": "85713",
      "bernieID": 562
    },
    {
      "attendee_count": 2,
      "capacity": "5",
      "id": "3745",
      "id_obfuscated": "4jtvg",
      "latitude": "37.161400",
      "longitude": "-113.037697",
      "name": "Bernie organizing",
      "start_day": "2015-07-29",
      "start_dt": "2015-07-29 19:30:00",
      "start_time": "19:30:00",
      "venue_zip": "84763",
      "bernieID": 563
    },
    {
      "attendee_count": 13,
      "capacity": "30",
      "id": "674",
      "id_obfuscated": "wq5",
      "latitude": "38.070866",
      "longitude": "-122.825684",
      "name": "West Marin Bernie Sanders for President Organizing Meeting",
      "start_day": "2015-07-29",
      "start_dt": "2015-07-29 18:30:00",
      "start_time": "18:30:00",
      "venue_zip": "94937",
      "bernieID": 564
    },
    {
      "attendee_count": 20,
      "capacity": "20",
      "id": "1959",
      "id_obfuscated": "4jjgd",
      "latitude": "38.659527",
      "longitude": "-121.505875",
      "name": "Bernie Sanders Organizing Kick Off Natomas",
      "start_day": "2015-07-29",
      "start_dt": "2015-07-29 18:30:00",
      "start_time": "18:30:00",
      "venue_zip": "95835",
      "bernieID": 565
    },
    {
      "attendee_count": 13,
      "capacity": "13",
      "id": "3241",
      "id_obfuscated": "4vxs9",
      "latitude": "36.976170",
      "longitude": "-122.033829",
      "name": "Santa Cruz West Side Supports Bernie",
      "start_day": "2015-07-29",
      "start_dt": "2015-07-29 18:30:00",
      "start_time": "18:30:00",
      "venue_zip": "95060",
      "bernieID": 566
    },
    {
      "attendee_count": 6,
      "capacity": "12",
      "id": "3497",
      "id_obfuscated": "4vxzr",
      "latitude": "39.992668",
      "longitude": "-105.137527",
      "name": "Louisville --Hillsborough North [north of Alfalfas]",
      "start_day": "2015-07-29",
      "start_dt": "2015-07-29 19:30:00",
      "start_time": "19:30:00",
      "venue_zip": "80027",
      "bernieID": 567
    },
    {
      "attendee_count": 29,
      "capacity": "30",
      "id": "683",
      "id_obfuscated": "wbg",
      "latitude": "36.045536",
      "longitude": "-115.101868",
      "name": "Henderson non-billionaires for Bernie",
      "start_day": "2015-07-29",
      "start_dt": "2015-07-29 18:30:00",
      "start_time": "18:30:00",
      "venue_zip": "89074",
      "bernieID": 568
    },
    {
      "attendee_count": 8,
      "capacity": "50",
      "id": "1195",
      "id_obfuscated": "4jv4d",
      "latitude": "36.141998",
      "longitude": "-115.347237",
      "name": "Bernie Speaks for me/Live Broadcast 7PM",
      "start_day": "2015-07-29",
      "start_dt": "2015-07-29 18:30:00",
      "start_time": "18:30:00",
      "venue_zip": "89135",
      "bernieID": 569
    },
    {
      "attendee_count": 20,
      "capacity": "20",
      "id": "2476",
      "id_obfuscated": "4v7q7",
      "latitude": "40.195175",
      "longitude": "-105.178078",
      "name": "LOCO for Bernie in Longmont",
      "start_day": "2015-07-29",
      "start_dt": "2015-07-29 19:30:00",
      "start_time": "19:30:00",
      "venue_zip": "80503",
      "bernieID": 570
    },
    {
      "attendee_count": 22,
      "capacity": "26",
      "id": "942",
      "id_obfuscated": "wcm",
      "latitude": "37.981018",
      "longitude": "-121.827850",
      "name": "Eastern Contra Costa County For Bernie!",
      "start_day": "2015-07-29",
      "start_dt": "2015-07-29 18:30:00",
      "start_time": "18:30:00",
      "venue_zip": "94509",
      "bernieID": 571
    },
    {
      "attendee_count": 62,
      "capacity": "0",
      "id": "434",
      "id_obfuscated": "wrbz",
      "latitude": "31.848751",
      "longitude": "-110.989662",
      "name": "Green Valley getting together for Bernie",
      "start_day": "2015-07-29",
      "start_dt": "2015-07-29 18:30:00",
      "start_time": "18:30:00",
      "venue_zip": "85614",
      "bernieID": 572
    },
    {
      "attendee_count": 15,
      "capacity": "15",
      "id": "1716",
      "id_obfuscated": "4jv5d",
      "latitude": "29.780935",
      "longitude": "-95.389915",
      "name": "Houston Heights for Bernie 2016",
      "start_day": "2015-07-29",
      "start_dt": "2015-07-29 20:30:00",
      "start_time": "20:30:00",
      "venue_zip": "77007",
      "bernieID": 573
    },
    {
      "attendee_count": 25,
      "capacity": "25",
      "id": "950",
      "id_obfuscated": "wf7",
      "latitude": "37.766758",
      "longitude": "-122.233566",
      "name": "Alameda Sanders Social",
      "start_day": "2015-07-29",
      "start_dt": "2015-07-29 18:30:00",
      "start_time": "18:30:00",
      "venue_zip": "94501",
      "bernieID": 574
    },
    {
      "attendee_count": 149,
      "capacity": "150",
      "id": "1208",
      "id_obfuscated": "4jv4x",
      "latitude": "44.236485",
      "longitude": "-123.360130",
      "name": "Support Bernie at Pfeiffer Winery",
      "start_day": "2015-07-29",
      "start_dt": "2015-07-29 18:30:00",
      "start_time": "18:30:00",
      "venue_zip": "97448",
      "bernieID": 575
    },
    {
      "attendee_count": 50,
      "capacity": "50",
      "id": "697",
      "id_obfuscated": "wqk",
      "latitude": "39.978867",
      "longitude": "-105.132126",
      "name": "Louisville House Party for Bernie",
      "start_day": "2015-07-29",
      "start_dt": "2015-07-29 19:30:00",
      "start_time": "19:30:00",
      "venue_zip": "80027",
      "bernieID": 576
    },
    {
      "attendee_count": 51,
      "capacity": "60",
      "id": "2489",
      "id_obfuscated": "4v7bk",
      "latitude": "47.488590",
      "longitude": "-122.177048",
      "name": "East Renton Highlands Bernie Sanders Organization Meeting @ RTC",
      "start_day": "2015-07-29",
      "start_dt": "2015-07-29 18:30:00",
      "start_time": "18:30:00",
      "venue_zip": "98056",
      "bernieID": 577
    },
    {
      "attendee_count": 1,
      "capacity": "20",
      "id": "3770",
      "id_obfuscated": "4jtjw",
      "latitude": "33.900204",
      "longitude": "-117.581535",
      "name": "Latinos for Bern-IE",
      "start_day": "2015-07-29",
      "start_dt": "2015-07-29 18:30:00",
      "start_time": "18:30:00",
      "venue_zip": "92880",
      "bernieID": 578
    },
    {
      "attendee_count": 105,
      "capacity": "105",
      "id": "1981",
      "id_obfuscated": "4jjlq",
      "latitude": "37.807148",
      "longitude": "-122.269424",
      "name": "East bay kickoff rally",
      "start_day": "2015-07-29",
      "start_dt": "2015-07-29 18:30:00",
      "start_time": "18:30:00",
      "venue_zip": "94612",
      "bernieID": 579
    },
    {
      "attendee_count": 9,
      "capacity": "0",
      "id": "2493",
      "id_obfuscated": "4v7b9",
      "latitude": "43.515751",
      "longitude": "-114.306046",
      "name": "Hailey friends of Bernie Sanders",
      "start_day": "2015-07-29",
      "start_dt": "2015-07-29 19:30:00",
      "start_time": "19:30:00",
      "venue_zip": "83333",
      "bernieID": 580
    },
    {
      "attendee_count": 0,
      "capacity": "0",
      "id": "3263",
      "id_obfuscated": "4vxpv",
      "latitude": "46.445454",
      "longitude": "-122.963577",
      "name": "The Poor Farm Feels #TheBern!",
      "start_day": "2015-07-29",
      "start_dt": "2015-07-29 18:30:00",
      "start_time": "18:30:00",
      "venue_zip": "98596",
      "bernieID": 581
    },
    {
      "attendee_count": 3,
      "capacity": "15",
      "id": "705",
      "id_obfuscated": "w4y",
      "latitude": "37.580559",
      "longitude": "-106.145775",
      "name": "Organizing for Senator Sanders - Monte Vista, CO (includes Live Video)",
      "start_day": "2015-07-29",
      "start_dt": "2015-07-29 19:30:00",
      "start_time": "19:30:00",
      "venue_zip": "81144",
      "bernieID": 582
    },
    {
      "attendee_count": 50,
      "capacity": "50",
      "id": "1987",
      "id_obfuscated": "4jjjv",
      "latitude": "45.521557",
      "longitude": "-122.671516",
      "name": "Downtown Portland for Bernie",
      "start_day": "2015-07-29",
      "start_dt": "2015-07-29 18:30:00",
      "start_time": "18:30:00",
      "venue_zip": "97204",
      "bernieID": 583
    },
    {
      "attendee_count": 41,
      "capacity": "50",
      "id": "2499",
      "id_obfuscated": "4v74b",
      "latitude": "47.683586",
      "longitude": "-122.323639",
      "name": "Bernie 2016 Kickoff Meeting",
      "start_day": "2015-07-29",
      "start_dt": "2015-07-29 18:30:00",
      "start_time": "18:30:00",
      "venue_zip": "98115",
      "bernieID": 584
    },
    {
      "attendee_count": 57,
      "capacity": "60",
      "id": "1220",
      "id_obfuscated": "4jvrs",
      "latitude": "40.240410",
      "longitude": "-111.664688",
      "name": "Provo for Bernie Kickoff Meeting!",
      "start_day": "2015-07-29",
      "start_dt": "2015-07-29 19:30:00",
      "start_time": "19:30:00",
      "venue_zip": "84601",
      "bernieID": 585
    },
    {
      "attendee_count": 12,
      "capacity": "12",
      "id": "1221",
      "id_obfuscated": "4jvrp",
      "latitude": "33.680134",
      "longitude": "-112.229790",
      "name": "Peoria/Glendale Supporters for Bernie",
      "start_day": "2015-07-29",
      "start_dt": "2015-07-29 18:30:00",
      "start_time": "18:30:00",
      "venue_zip": "85382",
      "bernieID": 586
    },
    {
      "attendee_count": 3,
      "capacity": "20",
      "id": "3269",
      "id_obfuscated": "4vxg9",
      "latitude": "40.724583",
      "longitude": "-111.872871",
      "name": "Organize for Bernie",
      "start_day": "2015-07-29",
      "start_dt": "2015-07-29 19:30:00",
      "start_time": "19:30:00",
      "venue_zip": "84106",
      "bernieID": 587
    },
    {
      "attendee_count": 16,
      "capacity": "30",
      "id": "2247",
      "id_obfuscated": "4v5mk",
      "latitude": "47.701538",
      "longitude": "-122.387024",
      "name": "Organizing Meeting for Bernie Sanders at 7PM PT at my home in the North Beach/Blue Ridge Neighborhood of Seattle",
      "start_day": "2015-07-29",
      "start_dt": "2015-07-29 18:30:00",
      "start_time": "18:30:00",
      "venue_zip": "98177",
      "bernieID": 588
    },
    {
      "attendee_count": 50,
      "capacity": "50",
      "id": "2509",
      "id_obfuscated": "4v74p",
      "latitude": "45.743111",
      "longitude": "-122.714691",
      "name": "Bernie Sanders Organizing Kickoff in Ridgefield",
      "start_day": "2015-07-29",
      "start_dt": "2015-07-29 18:30:00",
      "start_time": "18:30:00",
      "venue_zip": "98642",
      "bernieID": 589
    },
    {
      "attendee_count": 10,
      "capacity": "10",
      "id": "2000",
      "id_obfuscated": "4jjj9",
      "latitude": "40.272400",
      "longitude": "-111.717003",
      "name": "#FeeltheBern in Utah County (Orem)",
      "start_day": "2015-07-29",
      "start_dt": "2015-07-29 19:30:00",
      "start_time": "19:30:00",
      "venue_zip": "84058",
      "bernieID": 590
    },
    {
      "attendee_count": 12,
      "capacity": "12",
      "id": "2259",
      "id_obfuscated": "4v5hy",
      "latitude": "33.510639",
      "longitude": "-112.079124",
      "name": "Organizing Party for Bernie Sanders in Central Phoenix",
      "start_day": "2015-07-29",
      "start_dt": "2015-07-29 18:30:00",
      "start_time": "18:30:00",
      "venue_zip": "85013",
      "bernieID": 591
    },
    {
      "attendee_count": 75,
      "capacity": "75",
      "id": "468",
      "id_obfuscated": "wrgp",
      "latitude": "37.673523",
      "longitude": "-121.755104",
      "name": "Kickoff Event -- Livermore Public Library",
      "start_day": "2015-07-29",
      "start_dt": "2015-07-29 18:30:00",
      "start_time": "18:30:00",
      "venue_zip": "94550",
      "bernieID": 592
    },
    {
      "attendee_count": 55,
      "capacity": "0",
      "id": "3028",
      "id_obfuscated": "4v75f",
      "latitude": "40.894100",
      "longitude": "-124.094070",
      "name": "Bernie Sanders Volunteer Meeting",
      "start_day": "2015-07-29",
      "start_dt": "2015-07-29 18:30:00",
      "start_time": "18:30:00",
      "venue_zip": "95521",
      "bernieID": 593
    },
    {
      "attendee_count": 36,
      "capacity": "50",
      "id": "981",
      "id_obfuscated": "w2d",
      "latitude": "19.494095",
      "longitude": "-154.945877",
      "name": "Bernie Sanders Organizing Meeting - Puna District",
      "start_day": "2015-07-29",
      "start_dt": "2015-07-29 15:30:00",
      "start_time": "15:30:00",
      "venue_zip": "96778",
      "bernieID": 594
    },
    {
      "attendee_count": 16,
      "capacity": "50",
      "id": "2517",
      "id_obfuscated": "4v74k",
      "latitude": "32.671272",
      "longitude": "-117.018700",
      "name": "Reseeding America: Southbay Grassroots for Bernie",
      "start_day": "2015-07-29",
      "start_dt": "2015-07-29 18:30:00",
      "start_time": "18:30:00",
      "venue_zip": "91902",
      "bernieID": 595
    },
    {
      "attendee_count": 27,
      "capacity": "25",
      "id": "474",
      "id_obfuscated": "wrgd",
      "latitude": "47.733189",
      "longitude": "-122.352997",
      "name": "North Seattle/ Shoreline Meetup",
      "start_day": "2015-07-29",
      "start_dt": "2015-07-29 18:30:00",
      "start_time": "18:30:00",
      "venue_zip": "98133",
      "bernieID": 596
    },
    {
      "attendee_count": 42,
      "capacity": "42",
      "id": "2522",
      "id_obfuscated": "4v7g4",
      "latitude": "35.088326",
      "longitude": "-106.577469",
      "name": "Feel the Bern",
      "start_day": "2015-07-29",
      "start_dt": "2015-07-29 19:30:00",
      "start_time": "19:30:00",
      "venue_zip": "87110",
      "bernieID": 597
    },
    {
      "attendee_count": 10,
      "capacity": "10",
      "id": "2778",
      "id_obfuscated": "4v79c",
      "latitude": "32.614101",
      "longitude": "-117.081192",
      "name": "Chula vista, a Bernie sanders meeting",
      "start_day": "2015-07-29",
      "start_dt": "2015-07-29 18:30:00",
      "start_time": "18:30:00",
      "venue_zip": "91911",
      "bernieID": 598
    },
    {
      "attendee_count": 30,
      "capacity": "75",
      "id": "2780",
      "id_obfuscated": "4v79y",
      "latitude": "36.729053",
      "longitude": "-108.207336",
      "name": "Farmington gathers for a progressive future with Bernie Sanders",
      "start_day": "2015-07-29",
      "start_dt": "2015-07-29 19:30:00",
      "start_time": "19:30:00",
      "venue_zip": "87401",
      "bernieID": 599
    },
    {
      "attendee_count": 15,
      "capacity": "15",
      "id": "2781",
      "id_obfuscated": "4v79d",
      "latitude": "34.190315",
      "longitude": "-118.425171",
      "name": "Bernie Sanders Live Event at Weinglass' Residence",
      "start_day": "2015-07-29",
      "start_dt": "2015-07-29 18:30:00",
      "start_time": "18:30:00",
      "venue_zip": "91401",
      "bernieID": 600
    }
  ]
}