{
  "results": [
    {
      "attendee_count": 60,
      "capacity": "0",
      "id": "671",
      "id_obfuscated": "wl8",
      "latitude": "35.112858",
      "longitude": "-85.253464",
      "name": "Chattanooga Bernie MeetUp",
      "start_day": "2015-07-29",
      "start_dt": "2015-07-29 18:30:00",
      "start_time": "18:30:00",
      "venue_zip": "37415",
      "bernieID": 2201
    },
    {
      "attendee_count": 25,
      "capacity": "25",
      "id": "416",
      "id_obfuscated": "wrsp",
      "latitude": "31.106672",
      "longitude": "-97.340599",
      "name": "Bell County for Bernie",
      "start_day": "2015-07-29",
      "start_dt": "2015-07-29 17:30:00",
      "start_time": "17:30:00",
      "venue_zip": "76501",
      "bernieID": 2202
    },
    {
      "attendee_count": 21,
      "capacity": "21",
      "id": "2720",
      "id_obfuscated": "4v7cl",
      "latitude": "33.493282",
      "longitude": "-81.748451",
      "name": "Aiken for Bernie!",
      "start_day": "2015-07-29",
      "start_dt": "2015-07-29 18:30:00",
      "start_time": "18:30:00",
      "venue_zip": "29803",
      "bernieID": 2203
    },
    {
      "attendee_count": 25,
      "capacity": "25",
      "id": "2722",
      "id_obfuscated": "4v7cb",
      "latitude": "42.367096",
      "longitude": "-71.187019",
      "name": "Watertown for Bernie",
      "start_day": "2015-07-29",
      "start_dt": "2015-07-29 18:30:00",
      "start_time": "18:30:00",
      "venue_zip": "02472",
      "bernieID": 2204
    },
    {
      "attendee_count": 30,
      "capacity": "30",
      "id": "2467",
      "id_obfuscated": "4v7q5",
      "latitude": "32.882305",
      "longitude": "-79.981987",
      "name": "Park Circle introduction to Bernie",
      "start_day": "2015-07-29",
      "start_dt": "2015-07-29 18:30:00",
      "start_time": "18:30:00",
      "venue_zip": "29405",
      "bernieID": 2205
    },
    {
      "attendee_count": 9,
      "capacity": "40",
      "id": "420",
      "id_obfuscated": "wrs9",
      "latitude": "41.749386",
      "longitude": "-91.606415",
      "name": "North Liberty Residents for Sanders Get-Together",
      "start_day": "2015-07-29",
      "start_dt": "2015-07-29 17:30:00",
      "start_time": "17:30:00",
      "venue_zip": "52317",
      "bernieID": 2206
    },
    {
      "attendee_count": 18,
      "capacity": "20",
      "id": "2470",
      "id_obfuscated": "4v7qk",
      "latitude": "41.930851",
      "longitude": "-74.014473",
      "name": "Uptown Kingston for Bernie",
      "start_day": "2015-07-29",
      "start_dt": "2015-07-29 18:30:00",
      "start_time": "18:30:00",
      "venue_zip": "12401",
      "bernieID": 2207
    },
    {
      "attendee_count": 30,
      "capacity": "30",
      "id": "679",
      "id_obfuscated": "wbv",
      "latitude": "28.347263",
      "longitude": "-80.664169",
      "name": "Brevard  for Bernie",
      "start_day": "2015-07-29",
      "start_dt": "2015-07-29 18:30:00",
      "start_time": "18:30:00",
      "venue_zip": "32952",
      "bernieID": 2208
    },
    {
      "attendee_count": 236,
      "capacity": "500",
      "id": "1191",
      "id_obfuscated": "4jv4r",
      "latitude": "26.139704",
      "longitude": "-80.137619",
      "name": "Live broadcast of Bernie Sanders @ Makers Square",
      "start_day": "2015-07-29",
      "start_dt": "2015-07-29 18:30:00",
      "start_time": "18:30:00",
      "venue_zip": "33304",
      "bernieID": 2209
    },
    {
      "attendee_count": 38,
      "capacity": "38",
      "id": "680",
      "id_obfuscated": "wbl",
      "latitude": "35.916580",
      "longitude": "-78.713852",
      "name": "No. Raleigh NC meeting for the Bernie Sanders 2016 Presidential Campaign",
      "start_day": "2015-07-29",
      "start_dt": "2015-07-29 18:30:00",
      "start_time": "18:30:00",
      "venue_zip": "27613",
      "bernieID": 2210
    },
    {
      "attendee_count": 12,
      "capacity": "20",
      "id": "2473",
      "id_obfuscated": "4v7bj",
      "latitude": "34.793213",
      "longitude": "-92.408096",
      "name": "West Little Rock",
      "start_day": "2015-07-29",
      "start_dt": "2015-07-29 17:30:00",
      "start_time": "17:30:00",
      "venue_zip": "72223",
      "bernieID": 2211
    },
    {
      "attendee_count": 16,
      "capacity": "25",
      "id": "2985",
      "id_obfuscated": "4vxrv",
      "latitude": "42.028839",
      "longitude": "-93.620422",
      "name": "Bernie Sanders for President Story County Kickoff",
      "start_day": "2015-07-29",
      "start_dt": "2015-07-29 17:30:00",
      "start_time": "17:30:00",
      "venue_zip": "50010",
      "bernieID": 2212
    },
    {
      "attendee_count": 0,
      "capacity": "200",
      "id": "3756",
      "id_obfuscated": "4jtvb",
      "latitude": "39.786545",
      "longitude": "-75.476219",
      "name": "Underground Subculture Supporting Bernie Sanders",
      "start_day": "2015-07-29",
      "start_dt": "2015-07-29 18:30:00",
      "start_time": "18:30:00",
      "venue_zip": "19809",
      "bernieID": 2213
    },
    {
      "attendee_count": 10,
      "capacity": "10",
      "id": "685",
      "id_obfuscated": "wby",
      "latitude": "29.973883",
      "longitude": "-90.106064",
      "name": "Mid-City Organizing Meeting for Bernie Sanders Supporters",
      "start_day": "2015-07-29",
      "start_dt": "2015-07-29 17:30:00",
      "start_time": "17:30:00",
      "venue_zip": "70119",
      "bernieID": 2214
    },
    {
      "attendee_count": 30,
      "capacity": "30",
      "id": "1197",
      "id_obfuscated": "4jv4l",
      "latitude": "40.746464",
      "longitude": "-73.945473",
      "name": "Open House for Bernie Sanders, by the 7 train in LIC, NY",
      "start_day": "2015-07-29",
      "start_dt": "2015-07-29 18:30:00",
      "start_time": "18:30:00",
      "venue_zip": "11101",
      "bernieID": 2215
    },
    {
      "attendee_count": 154,
      "capacity": "300",
      "id": "1453",
      "id_obfuscated": "4jv2z",
      "latitude": "42.733650",
      "longitude": "-84.521805",
      "name": "Bernie Revolution in Lansing, MI at The Avenue Cafe",
      "start_day": "2015-07-29",
      "start_dt": "2015-07-29 18:30:00",
      "start_time": "18:30:00",
      "venue_zip": "48912",
      "bernieID": 2216
    },
    {
      "attendee_count": 40,
      "capacity": "40",
      "id": "2478",
      "id_obfuscated": "4v7bt",
      "latitude": "42.811325",
      "longitude": "-73.884583",
      "name": "Schenectady Area Bernie Organizing Meeting",
      "start_day": "2015-07-29",
      "start_dt": "2015-07-29 18:30:00",
      "start_time": "18:30:00",
      "venue_zip": "12309",
      "bernieID": 2217
    },
    {
      "attendee_count": 7,
      "capacity": "20",
      "id": "2224",
      "id_obfuscated": "4v5x5",
      "latitude": "37.595123",
      "longitude": "-88.712334",
      "name": "Johnson-Pope-Hardin County for Bernie",
      "start_day": "2015-07-29",
      "start_dt": "2015-07-29 18:30:00",
      "start_time": "18:30:00",
      "venue_zip": "62972",
      "bernieID": 2218
    },
    {
      "attendee_count": 115,
      "capacity": "115",
      "id": "2737",
      "id_obfuscated": "4v7c5",
      "latitude": "39.166557",
      "longitude": "-86.530434",
      "name": "Bloomington, Indiana Bernie Supporters",
      "start_day": "2015-07-29",
      "start_dt": "2015-07-29 18:30:00",
      "start_time": "18:30:00",
      "venue_zip": "47408",
      "bernieID": 2219
    },
    {
      "attendee_count": 12,
      "capacity": "0",
      "id": "1970",
      "id_obfuscated": "4jjl4",
      "latitude": "28.945934",
      "longitude": "-81.325760",
      "name": "No business as usual. Bernie for Pres.",
      "start_day": "2015-07-29",
      "start_dt": "2015-07-29 18:30:00",
      "start_time": "18:30:00",
      "venue_zip": "32763",
      "bernieID": 2220
    },
    {
      "attendee_count": 5,
      "capacity": "20",
      "id": "2739",
      "id_obfuscated": "4v7cx",
      "latitude": "45.048176",
      "longitude": "-69.382195",
      "name": "Backwoods Bernie Supporters",
      "start_day": "2015-07-29",
      "start_dt": "2015-07-29 18:30:00",
      "start_time": "18:30:00",
      "venue_zip": "04930",
      "bernieID": 2221
    },
    {
      "attendee_count": 20,
      "capacity": "20",
      "id": "1205",
      "id_obfuscated": "4jv49",
      "latitude": "25.993773",
      "longitude": "-80.124863",
      "name": "South Floridians For Bernie",
      "start_day": "2015-07-29",
      "start_dt": "2015-07-29 18:30:00",
      "start_time": "18:30:00",
      "venue_zip": "33009",
      "bernieID": 2222
    },
    {
      "attendee_count": 30,
      "capacity": "30",
      "id": "1206",
      "id_obfuscated": "4jv48",
      "latitude": "48.159264",
      "longitude": "-122.121178",
      "name": "Arlington Bernie Sanders Gathering",
      "start_day": "2015-07-29",
      "start_dt": "2015-07-29 18:30:00",
      "start_time": "18:30:00",
      "venue_zip": "98223",
      "bernieID": 2223
    },
    {
      "attendee_count": 6,
      "capacity": "0",
      "id": "2998",
      "id_obfuscated": "4vxrl",
      "latitude": "47.848618",
      "longitude": "-92.338844",
      "name": "Feel the Bern! Cook Area",
      "start_day": "2015-07-29",
      "start_dt": "2015-07-29 17:30:00",
      "start_time": "17:30:00",
      "venue_zip": "55723",
      "bernieID": 2224
    },
    {
      "attendee_count": 39,
      "capacity": "100",
      "id": "2231",
      "id_obfuscated": "4v5xh",
      "latitude": "38.523380",
      "longitude": "-92.449898",
      "name": "Big Red Barn Farm in Russellville, MO",
      "start_day": "2015-07-29",
      "start_dt": "2015-07-29 17:30:00",
      "start_time": "17:30:00",
      "venue_zip": "65074",
      "bernieID": 2225
    },
    {
      "attendee_count": 26,
      "capacity": "30",
      "id": "1464",
      "id_obfuscated": "4jv9y",
      "latitude": "27.349817",
      "longitude": "-82.544724",
      "name": "#FeelTheBern SRQ",
      "start_day": "2015-07-29",
      "start_dt": "2015-07-29 18:30:00",
      "start_time": "18:30:00",
      "venue_zip": "34236",
      "bernieID": 2226
    },
    {
      "attendee_count": 47,
      "capacity": "0",
      "id": "954",
      "id_obfuscated": "wcv",
      "latitude": "43.048180",
      "longitude": "-89.311760",
      "name": "Organizing Wisconsin for Bernie Sanders",
      "start_day": "2015-07-29",
      "start_dt": "2015-07-29 17:30:00",
      "start_time": "17:30:00",
      "venue_zip": "53716",
      "bernieID": 2227
    },
    {
      "attendee_count": 27,
      "capacity": "30",
      "id": "1210",
      "id_obfuscated": "4jvgr",
      "latitude": "42.408978",
      "longitude": "-71.158005",
      "name": "Arlington for Bernie - a house party",
      "start_day": "2015-07-29",
      "start_dt": "2015-07-29 18:30:00",
      "start_time": "18:30:00",
      "venue_zip": "02476",
      "bernieID": 2228
    },
    {
      "attendee_count": 15,
      "capacity": "15",
      "id": "2490",
      "id_obfuscated": "4v7bz",
      "latitude": "37.511139",
      "longitude": "-77.469643",
      "name": "RVA Outer Manchester for Bernie Organizing Meeting",
      "start_day": "2015-07-29",
      "start_dt": "2015-07-29 18:30:00",
      "start_time": "18:30:00",
      "venue_zip": "23224",
      "bernieID": 2229
    },
    {
      "attendee_count": 47,
      "capacity": "250",
      "id": "3258",
      "id_obfuscated": "4vxp4",
      "latitude": "27.763794",
      "longitude": "-82.669289",
      "name": "Bernie Sanders Live Stream and Benefit Show at the Venture Compound, St. Pete",
      "start_day": "2015-07-29",
      "start_dt": "2015-07-29 18:30:00",
      "start_time": "18:30:00",
      "venue_zip": "33712",
      "bernieID": 2230
    },
    {
      "attendee_count": 20,
      "capacity": "20",
      "id": "443",
      "id_obfuscated": "wrsv",
      "latitude": "42.745705",
      "longitude": "-73.659180",
      "name": "Troy meet up to organize for Bernie Sanders",
      "start_day": "2015-07-29",
      "start_dt": "2015-07-29 18:30:00",
      "start_time": "18:30:00",
      "venue_zip": "12180",
      "bernieID": 2231
    },
    {
      "attendee_count": 55,
      "capacity": "55",
      "id": "955",
      "id_obfuscated": "wcj",
      "latitude": "42.196701",
      "longitude": "-83.625099",
      "name": "Ypsi Organizing Meet Up",
      "start_day": "2015-07-29",
      "start_dt": "2015-07-29 18:30:00",
      "start_time": "18:30:00",
      "venue_zip": "48197",
      "bernieID": 2232
    },
    {
      "attendee_count": 78,
      "capacity": "80",
      "id": "1212",
      "id_obfuscated": "4jv4m",
      "latitude": "43.798145",
      "longitude": "-91.248833",
      "name": "La Crosse for Bernie Organizing Meeting (5:30 to 8:15 pm central time)",
      "start_day": "2015-07-29",
      "start_dt": "2015-07-29 17:30:00",
      "start_time": "17:30:00",
      "venue_zip": "54601",
      "bernieID": 2233
    },
    {
      "attendee_count": 1,
      "capacity": "24",
      "id": "3260",
      "id_obfuscated": "4vxsx",
      "latitude": "40.080318",
      "longitude": "-80.901756",
      "name": "Bernie Kickoff - Belmont Co., OH",
      "start_day": "2015-07-29",
      "start_dt": "2015-07-29 18:30:00",
      "start_time": "18:30:00",
      "venue_zip": "43950",
      "bernieID": 2234
    },
    {
      "attendee_count": 18,
      "capacity": "18",
      "id": "1469",
      "id_obfuscated": "4jv9b",
      "latitude": "39.152687",
      "longitude": "-84.445358",
      "name": "Bernie Sanders for President Organizing Meeting:  Norwood, OH",
      "start_day": "2015-07-29",
      "start_dt": "2015-07-29 18:30:00",
      "start_time": "18:30:00",
      "venue_zip": "45212",
      "bernieID": 2235
    },
    {
      "attendee_count": 25,
      "capacity": "25",
      "id": "2238",
      "id_obfuscated": "4v7tj",
      "latitude": "37.361023",
      "longitude": "-81.055374",
      "name": "Mercer County for Bernie Kickoff",
      "start_day": "2015-07-29",
      "start_dt": "2015-07-29 18:30:00",
      "start_time": "18:30:00",
      "venue_zip": "24740",
      "bernieID": 2236
    },
    {
      "attendee_count": 30,
      "capacity": "0",
      "id": "2751",
      "id_obfuscated": "4v7kj",
      "latitude": "41.824474",
      "longitude": "-71.398918",
      "name": "Pep RALLY Sanders MEETUP at Louie's on Brook Street, Providence",
      "start_day": "2015-07-29",
      "start_dt": "2015-07-29 18:30:00",
      "start_time": "18:30:00",
      "venue_zip": "02906",
      "bernieID": 2237
    },
    {
      "attendee_count": 5,
      "capacity": "25",
      "id": "1984",
      "id_obfuscated": "4jjvx",
      "latitude": "39.275387",
      "longitude": "-81.547066",
      "name": "Parkersburg Area  for Bernie Sanders  7pm July 29",
      "start_day": "2015-07-29",
      "start_dt": "2015-07-29 18:30:00",
      "start_time": "18:30:00",
      "venue_zip": "26101",
      "bernieID": 2238
    },
    {
      "attendee_count": 10,
      "capacity": "50",
      "id": "3521",
      "id_obfuscated": "4vx84",
      "latitude": "40.668213",
      "longitude": "-74.895599",
      "name": "Organizing Meeting at the Harvest Cafe",
      "start_day": "2015-07-29",
      "start_dt": "2015-07-29 18:30:00",
      "start_time": "18:30:00",
      "venue_zip": "08829",
      "bernieID": 2239
    },
    {
      "attendee_count": 13,
      "capacity": "0",
      "id": "2498",
      "id_obfuscated": "4v74q",
      "latitude": "39.051601",
      "longitude": "-120.165100",
      "name": "Tahoe for Bernie Sanders",
      "start_day": "2015-07-29",
      "start_dt": "2015-07-29 18:30:00",
      "start_time": "18:30:00",
      "venue_zip": "96142",
      "bernieID": 2240
    },
    {
      "attendee_count": 10,
      "capacity": "100",
      "id": "3267",
      "id_obfuscated": "4vxg3",
      "latitude": "33.849667",
      "longitude": "-78.622498",
      "name": "NMB meeting",
      "start_day": "2015-07-29",
      "start_dt": "2015-07-29 18:30:00",
      "start_time": "18:30:00",
      "venue_zip": "29582",
      "bernieID": 2241
    },
    {
      "attendee_count": 14,
      "capacity": "0",
      "id": "452",
      "id_obfuscated": "wrlt",
      "latitude": "35.651085",
      "longitude": "-82.808220",
      "name": "Sandy Mush Grassroots Kickoff for Bernie 2016",
      "start_day": "2015-07-29",
      "start_dt": "2015-07-29 18:30:00",
      "start_time": "18:30:00",
      "venue_zip": "28748",
      "bernieID": 2242
    },
    {
      "attendee_count": 18,
      "capacity": "300",
      "id": "2500",
      "id_obfuscated": "4v74v",
      "latitude": "43.025826",
      "longitude": "-83.640572",
      "name": "United for Bernie",
      "start_day": "2015-07-29",
      "start_dt": "2015-07-29 18:30:00",
      "start_time": "18:30:00",
      "venue_zip": "48506",
      "bernieID": 2243
    },
    {
      "attendee_count": 40,
      "capacity": "40",
      "id": "2757",
      "id_obfuscated": "4v728",
      "latitude": "27.991392",
      "longitude": "-82.729324",
      "name": "Clearwater Organizing for Bernie",
      "start_day": "2015-07-29",
      "start_dt": "2015-07-29 18:30:00",
      "start_time": "18:30:00",
      "venue_zip": "33759",
      "bernieID": 2244
    },
    {
      "attendee_count": 30,
      "capacity": "30",
      "id": "1734",
      "id_obfuscated": "4jvzp",
      "latitude": "26.848850",
      "longitude": "-80.093430",
      "name": "Make history with Bernie Sanders in Palm Beach Gardens, Florida",
      "start_day": "2015-07-29",
      "start_dt": "2015-07-29 18:30:00",
      "start_time": "18:30:00",
      "venue_zip": "33410",
      "bernieID": 2245
    },
    {
      "attendee_count": 12,
      "capacity": "12",
      "id": "3271",
      "id_obfuscated": "4vxgf",
      "latitude": "39.349625",
      "longitude": "-76.603378",
      "name": "Govans for Bernie",
      "start_day": "2015-07-29",
      "start_dt": "2015-07-29 18:30:00",
      "start_time": "18:30:00",
      "venue_zip": "21212",
      "bernieID": 2246
    },
    {
      "attendee_count": 27,
      "capacity": "0",
      "id": "1736",
      "id_obfuscated": "4jvz3",
      "latitude": "30.600683",
      "longitude": "-81.443527",
      "name": "Amelia Islanders for Bernie Sanders!",
      "start_day": "2015-07-29",
      "start_dt": "2015-07-29 18:30:00",
      "start_time": "18:30:00",
      "venue_zip": "32034",
      "bernieID": 2247
    },
    {
      "attendee_count": 6,
      "capacity": "15",
      "id": "969",
      "id_obfuscated": "w9g",
      "latitude": "42.225632",
      "longitude": "-89.057602",
      "name": "Bernie Supporters",
      "start_day": "2015-07-29",
      "start_dt": "2015-07-29 17:30:00",
      "start_time": "17:30:00",
      "venue_zip": "61109",
      "bernieID": 2248
    },
    {
      "attendee_count": 86,
      "capacity": "100",
      "id": "1993",
      "id_obfuscated": "4jjjq",
      "latitude": "39.111626",
      "longitude": "-84.512222",
      "name": "Over The Rhine Bernie Sanders - Organizing Party",
      "start_day": "2015-07-29",
      "start_dt": "2015-07-29 18:30:00",
      "start_time": "18:30:00",
      "venue_zip": "45202",
      "bernieID": 2249
    },
    {
      "attendee_count": 29,
      "capacity": "0",
      "id": "2761",
      "id_obfuscated": "4v79r",
      "latitude": "39.185650",
      "longitude": "-96.565773",
      "name": "Politics and Punch in the Flint Hills &ndash; A Bernie Sanders Watch Party",
      "start_day": "2015-07-29",
      "start_dt": "2015-07-29 17:30:00",
      "start_time": "17:30:00",
      "venue_zip": "66502",
      "bernieID": 2250
    },
    {
      "attendee_count": 0,
      "capacity": "100",
      "id": "3785",
      "id_obfuscated": "4vx7x",
      "latitude": "36.731647",
      "longitude": "-91.852509",
      "name": "West Plains for Bernie Sanders",
      "start_day": "2015-07-29",
      "start_dt": "2015-07-29 17:30:00",
      "start_time": "17:30:00",
      "venue_zip": "65775",
      "bernieID": 2251
    },
    {
      "attendee_count": 20,
      "capacity": "20",
      "id": "1995",
      "id_obfuscated": "4jjjs",
      "latitude": "47.763241",
      "longitude": "-122.362900",
      "name": "Richmond Highlands for Bernie Sanders",
      "start_day": "2015-07-29",
      "start_dt": "2015-07-29 18:30:00",
      "start_time": "18:30:00",
      "venue_zip": "98177",
      "bernieID": 2252
    },
    {
      "attendee_count": 12,
      "capacity": "12",
      "id": "1484",
      "id_obfuscated": "4jvpw",
      "latitude": "32.853340",
      "longitude": "-96.761063",
      "name": "Dallas- The Village Meeting",
      "start_day": "2015-07-29",
      "start_dt": "2015-07-29 17:30:00",
      "start_time": "17:30:00",
      "venue_zip": "75206",
      "bernieID": 2253
    },
    {
      "attendee_count": 24,
      "capacity": "24",
      "id": "1485",
      "id_obfuscated": "4jvp4",
      "latitude": "41.659527",
      "longitude": "-91.531670",
      "name": "Iowa City Organizing Meeting for Bernie Sanders",
      "start_day": "2015-07-29",
      "start_dt": "2015-07-29 17:30:00",
      "start_time": "17:30:00",
      "venue_zip": "52240",
      "bernieID": 2254
    },
    {
      "attendee_count": 400,
      "capacity": "500",
      "id": "1741",
      "id_obfuscated": "4jvzc",
      "latitude": "38.055019",
      "longitude": "-84.484787",
      "name": "Lexington, KY Bernie Sanders Meetup!",
      "start_day": "2015-07-29",
      "start_dt": "2015-07-29 18:30:00",
      "start_time": "18:30:00",
      "venue_zip": "40508",
      "bernieID": 2255
    },
    {
      "attendee_count": 72,
      "capacity": "0",
      "id": "1997",
      "id_obfuscated": "4jjjw",
      "latitude": "40.947815",
      "longitude": "-90.371239",
      "name": "Bernie for President Galesburg Organizing Meeting",
      "start_day": "2015-07-29",
      "start_dt": "2015-07-29 17:30:00",
      "start_time": "17:30:00",
      "venue_zip": "61401",
      "bernieID": 2256
    },
    {
      "attendee_count": 145,
      "capacity": "200",
      "id": "1998",
      "id_obfuscated": "4jjj4",
      "latitude": "39.947983",
      "longitude": "-75.162613",
      "name": "Philly Organizing for Bernie",
      "start_day": "2015-07-29",
      "start_dt": "2015-07-29 18:30:00",
      "start_time": "18:30:00",
      "venue_zip": "19107",
      "bernieID": 2257
    },
    {
      "attendee_count": 2,
      "capacity": "15",
      "id": "2254",
      "id_obfuscated": "4v5mx",
      "latitude": "41.788612",
      "longitude": "-71.406326",
      "name": "House Party for Bernie",
      "start_day": "2015-07-29",
      "start_dt": "2015-07-29 18:30:00",
      "start_time": "18:30:00",
      "venue_zip": "02905",
      "bernieID": 2258
    },
    {
      "attendee_count": 50,
      "capacity": "50",
      "id": "1231",
      "id_obfuscated": "4jvr3",
      "latitude": "29.304935",
      "longitude": "-81.051758",
      "name": "Meetup 4 Bernie in Ormond Beach, Florida!",
      "start_day": "2015-07-29",
      "start_dt": "2015-07-29 18:30:00",
      "start_time": "18:30:00",
      "venue_zip": "32176",
      "bernieID": 2259
    },
    {
      "attendee_count": 100,
      "capacity": "100",
      "id": "1487",
      "id_obfuscated": "4jvpl",
      "latitude": "38.813763",
      "longitude": "-89.958427",
      "name": "Edwardsville Area Bernie Sanders informational event @SacredGroundsCafe",
      "start_day": "2015-07-29",
      "start_dt": "2015-07-29 17:30:00",
      "start_time": "17:30:00",
      "venue_zip": "62025",
      "bernieID": 2260
    },
    {
      "attendee_count": 25,
      "capacity": "25",
      "id": "2768",
      "id_obfuscated": "4v79q",
      "latitude": "39.370857",
      "longitude": "-76.670151",
      "name": "BERNIE SANDERS SUPPORTERS IN MT WASHINGTON",
      "start_day": "2015-07-29",
      "start_dt": "2015-07-29 18:30:00",
      "start_time": "18:30:00",
      "venue_zip": "21209",
      "bernieID": 2261
    },
    {
      "attendee_count": 1,
      "capacity": "50",
      "id": "3024",
      "id_obfuscated": "4v753",
      "latitude": "39.780148",
      "longitude": "-77.722527",
      "name": "Getting Ready for Bernie in Greencastle!",
      "start_day": "2015-07-29",
      "start_dt": "2015-07-29 18:30:00",
      "start_time": "18:30:00",
      "venue_zip": "17225",
      "bernieID": 2262
    },
    {
      "attendee_count": 102,
      "capacity": "125",
      "id": "1491",
      "id_obfuscated": "4jvpk",
      "latitude": "28.572685",
      "longitude": "-81.372871",
      "name": "Central Florida for Bernie Sanders",
      "start_day": "2015-07-29",
      "start_dt": "2015-07-29 18:30:00",
      "start_time": "18:30:00",
      "venue_zip": "32803",
      "bernieID": 2263
    },
    {
      "attendee_count": 20,
      "capacity": "20",
      "id": "2515",
      "id_obfuscated": "4v747",
      "latitude": "29.269197",
      "longitude": "-81.036552",
      "name": "Ormond Beach for Bernie 2016!",
      "start_day": "2015-07-29",
      "start_dt": "2015-07-29 18:30:00",
      "start_time": "18:30:00",
      "venue_zip": "32176",
      "bernieID": 2264
    },
    {
      "attendee_count": 0,
      "capacity": "20",
      "id": "724",
      "id_obfuscated": "wwx",
      "latitude": "36.347664",
      "longitude": "-82.216644",
      "name": "Elizabethton organizing meeting",
      "start_day": "2015-07-29",
      "start_dt": "2015-07-29 18:30:00",
      "start_time": "18:30:00",
      "venue_zip": "37643",
      "bernieID": 2265
    },
    {
      "attendee_count": 33,
      "capacity": "50",
      "id": "470",
      "id_obfuscated": "wrgb",
      "latitude": "36.566200",
      "longitude": "-82.260986",
      "name": "Northeast Tennessee and Southwest Virginia Bernie Sanders Organizing Event",
      "start_day": "2015-07-29",
      "start_dt": "2015-07-29 18:30:00",
      "start_time": "18:30:00",
      "venue_zip": "37620",
      "bernieID": 2266
    },
    {
      "attendee_count": 34,
      "capacity": "30",
      "id": "1495",
      "id_obfuscated": "4jvp9",
      "latitude": "37.842525",
      "longitude": "-122.265778",
      "name": "Potluck Organizing Kickoff for Bernie in North Oakland",
      "start_day": "2015-07-29",
      "start_dt": "2015-07-29 18:30:00",
      "start_time": "18:30:00",
      "venue_zip": "94609",
      "bernieID": 2267
    },
    {
      "attendee_count": 75,
      "capacity": "75",
      "id": "2519",
      "id_obfuscated": "4v743",
      "latitude": "34.447498",
      "longitude": "-119.830025",
      "name": "Santa Barbara for Bernie Sanders 2016",
      "start_day": "2015-07-29",
      "start_dt": "2015-07-29 18:30:00",
      "start_time": "18:30:00",
      "venue_zip": "93117",
      "bernieID": 2268
    },
    {
      "attendee_count": 5,
      "capacity": "20",
      "id": "3031",
      "id_obfuscated": "4v75z",
      "latitude": "38.794785",
      "longitude": "-94.258179",
      "name": "Pleasant Hill/small towns for Bernie",
      "start_day": "2015-07-29",
      "start_dt": "2015-07-29 18:30:00",
      "start_time": "18:30:00",
      "venue_zip": "64080",
      "bernieID": 2269
    },
    {
      "attendee_count": 19,
      "capacity": "40",
      "id": "984",
      "id_obfuscated": "w28",
      "latitude": "35.019432",
      "longitude": "-85.066391",
      "name": "Ooltewah/Collegedale Feel the Bern Organizing Meeting",
      "start_day": "2015-07-29",
      "start_dt": "2015-07-29 18:30:00",
      "start_time": "18:30:00",
      "venue_zip": "37363",
      "bernieID": 2270
    },
    {
      "attendee_count": 6,
      "capacity": "20",
      "id": "2264",
      "id_obfuscated": "4v5hf",
      "latitude": "32.243942",
      "longitude": "-101.442467",
      "name": "West Texas Feel the Bern Kickoff!",
      "start_day": "2015-07-29",
      "start_dt": "2015-07-29 17:30:00",
      "start_time": "17:30:00",
      "venue_zip": "79720",
      "bernieID": 2271
    },
    {
      "attendee_count": 20,
      "capacity": "20",
      "id": "1242",
      "id_obfuscated": "4jvvd",
      "latitude": "38.615150",
      "longitude": "-90.319969",
      "name": "Maplewood Citizens for Bernie Sanders",
      "start_day": "2015-07-29",
      "start_dt": "2015-07-29 17:30:00",
      "start_time": "17:30:00",
      "venue_zip": "63143",
      "bernieID": 2272
    },
    {
      "attendee_count": 5,
      "capacity": "15",
      "id": "2523",
      "id_obfuscated": "4v7gg",
      "latitude": "43.147686",
      "longitude": "-93.191025",
      "name": "Mason City IA Meeting",
      "start_day": "2015-07-29",
      "start_dt": "2015-07-29 17:30:00",
      "start_time": "17:30:00",
      "venue_zip": "50401",
      "bernieID": 2273
    },
    {
      "attendee_count": 20,
      "capacity": "20",
      "id": "2268",
      "id_obfuscated": "4v5hd",
      "latitude": "34.919308",
      "longitude": "-95.763977",
      "name": "McAlester for Bernie Sanders // Organizing Meeting",
      "start_day": "2015-07-29",
      "start_dt": "2015-07-29 17:30:00",
      "start_time": "17:30:00",
      "venue_zip": "74501",
      "bernieID": 2274
    },
    {
      "attendee_count": 15,
      "capacity": "15",
      "id": "222",
      "id_obfuscated": "w5w",
      "latitude": "28.011297",
      "longitude": "-82.461746",
      "name": "Seminole Heights for Bernie BBQ",
      "start_day": "2015-07-29",
      "start_dt": "2015-07-29 18:30:00",
      "start_time": "18:30:00",
      "venue_zip": "33604",
      "bernieID": 2275
    },
    {
      "attendee_count": 62,
      "capacity": "62",
      "id": "478",
      "id_obfuscated": "wrgf",
      "latitude": "37.225697",
      "longitude": "-80.412453",
      "name": "Blacksburg for Bernie - Blackbsurg Library",
      "start_day": "2015-07-29",
      "start_dt": "2015-07-29 18:30:00",
      "start_time": "18:30:00",
      "venue_zip": "24060",
      "bernieID": 2276
    },
    {
      "attendee_count": 18,
      "capacity": "25",
      "id": "734",
      "id_obfuscated": "w44",
      "latitude": "40.683285",
      "longitude": "-73.985809",
      "name": "Brooklyn for Bernie Organizing Meeting",
      "start_day": "2015-07-29",
      "start_dt": "2015-07-29 18:30:00",
      "start_time": "18:30:00",
      "venue_zip": "11217",
      "bernieID": 2277
    },
    {
      "attendee_count": 25,
      "capacity": "25",
      "id": "1246",
      "id_obfuscated": "4jvvb",
      "latitude": "42.575962",
      "longitude": "-71.077347",
      "name": "North shore organizing meeting to Elect Bernie Sanders",
      "start_day": "2015-07-29",
      "start_dt": "2015-07-29 18:30:00",
      "start_time": "18:30:00",
      "venue_zip": "01864",
      "bernieID": 2278
    },
    {
      "attendee_count": 79,
      "capacity": "100",
      "id": "2014",
      "id_obfuscated": "4jjj3",
      "latitude": "39.690243",
      "longitude": "-75.760818",
      "name": "Membership of the Delaware Alliance for Health Care is organizing this meeting in Newark, Delaware for Bernie Sanders on July 29",
      "start_day": "2015-07-29",
      "start_dt": "2015-07-29 18:30:00",
      "start_time": "18:30:00",
      "venue_zip": "19711",
      "bernieID": 2279
    },
    {
      "attendee_count": 35,
      "capacity": "50",
      "id": "3551",
      "id_obfuscated": "4vxft",
      "latitude": "41.875465",
      "longitude": "-88.063713",
      "name": "Glen Ellyn/Wheaton Sanders Supporters",
      "start_day": "2015-07-29",
      "start_dt": "2015-07-29 17:30:00",
      "start_time": "17:30:00",
      "venue_zip": "60137",
      "bernieID": 2280
    },
    {
      "attendee_count": 106,
      "capacity": "108",
      "id": "2529",
      "id_obfuscated": "4v7gy",
      "latitude": "42.270893",
      "longitude": "-71.808968",
      "name": "Feel the Bern in Worcester",
      "start_day": "2015-07-29",
      "start_dt": "2015-07-29 18:30:00",
      "start_time": "18:30:00",
      "venue_zip": "01609",
      "bernieID": 2281
    },
    {
      "attendee_count": 25,
      "capacity": "25",
      "id": "3041",
      "id_obfuscated": "4v77p",
      "latitude": "41.942684",
      "longitude": "-87.654213",
      "name": "Chicago-Lakeview Bernie Sanderrs 2016 meetup",
      "start_day": "2015-07-29",
      "start_dt": "2015-07-29 17:30:00",
      "start_time": "17:30:00",
      "venue_zip": "60657",
      "bernieID": 2282
    },
    {
      "attendee_count": 25,
      "capacity": "30",
      "id": "1252",
      "id_obfuscated": "4jvv9",
      "latitude": "38.973694",
      "longitude": "-77.314026",
      "name": "Reston  Kickoff Rally For Bernie Sanders!",
      "start_day": "2015-07-29",
      "start_dt": "2015-07-29 18:30:00",
      "start_time": "18:30:00",
      "venue_zip": "22182",
      "bernieID": 2283
    },
    {
      "attendee_count": 40,
      "capacity": "40",
      "id": "997",
      "id_obfuscated": "w8l",
      "latitude": "37.650703",
      "longitude": "-122.092033",
      "name": "Hear Bernie LIVE in Hayward",
      "start_day": "2015-07-29",
      "start_dt": "2015-07-29 18:30:00",
      "start_time": "18:30:00",
      "venue_zip": "94544",
      "bernieID": 2284
    },
    {
      "attendee_count": 100,
      "capacity": "100",
      "id": "2533",
      "id_obfuscated": "4v7gq",
      "latitude": "42.994698",
      "longitude": "-71.467400",
      "name": "Bernie surges in Manchester NH",
      "start_day": "2015-07-29",
      "start_dt": "2015-07-29 18:30:00",
      "start_time": "18:30:00",
      "venue_zip": "03102",
      "bernieID": 2285
    },
    {
      "attendee_count": 110,
      "capacity": "150",
      "id": "486",
      "id_obfuscated": "wrqj",
      "latitude": "42.656139",
      "longitude": "-73.762207",
      "name": "\"No one who is elected President of the United States, can do it alone\" - Bernie Sanders / Albany Organizational Meeting",
      "start_day": "2015-07-29",
      "start_dt": "2015-07-29 18:30:00",
      "start_time": "18:30:00",
      "venue_zip": "12210",
      "bernieID": 2286
    },
    {
      "attendee_count": 34,
      "capacity": "50",
      "id": "2278",
      "id_obfuscated": "4v5hh",
      "latitude": "38.337399",
      "longitude": "-76.462303",
      "name": "Calvert County for Bernie Sanders",
      "start_day": "2015-07-29",
      "start_dt": "2015-07-29 18:30:00",
      "start_time": "18:30:00",
      "venue_zip": "20688",
      "bernieID": 2287
    },
    {
      "attendee_count": 23,
      "capacity": "30",
      "id": "487",
      "id_obfuscated": "wrqw",
      "latitude": "40.756031",
      "longitude": "-73.928535",
      "name": "Astoria for Bernie",
      "start_day": "2015-07-29",
      "start_dt": "2015-07-29 18:30:00",
      "start_time": "18:30:00",
      "venue_zip": "11106",
      "bernieID": 2288
    },
    {
      "attendee_count": 33,
      "capacity": "0",
      "id": "1768",
      "id_obfuscated": "4jv3x",
      "latitude": "42.383087",
      "longitude": "-72.511833",
      "name": "Amherst, MA--It's Time to Inspire REAL Change with Bernie Sanders",
      "start_day": "2015-07-29",
      "start_dt": "2015-07-29 18:30:00",
      "start_time": "18:30:00",
      "venue_zip": "01002",
      "bernieID": 2289
    },
    {
      "attendee_count": 10,
      "capacity": "15",
      "id": "2024",
      "id_obfuscated": "4jjwy",
      "latitude": "39.620033",
      "longitude": "-105.022331",
      "name": "Littleton/Englewood organizing meeting for Bernie",
      "start_day": "2015-07-29",
      "start_dt": "2015-07-29 16:30:00",
      "start_time": "16:30:00",
      "venue_zip": "80123",
      "bernieID": 2290
    },
    {
      "attendee_count": 50,
      "capacity": "0",
      "id": "745",
      "id_obfuscated": "wg7",
      "latitude": "32.335876",
      "longitude": "-90.175919",
      "name": "Mississippi for Bernie Sanders Organizing Meeting",
      "start_day": "2015-07-29",
      "start_dt": "2015-07-29 17:30:00",
      "start_time": "17:30:00",
      "venue_zip": "39216",
      "bernieID": 2291
    },
    {
      "attendee_count": 2,
      "capacity": "24",
      "id": "3305",
      "id_obfuscated": "4vxq4",
      "latitude": "43.193607",
      "longitude": "-89.337639",
      "name": "Organizing Wisconsin For Bernie Sanders",
      "start_day": "2015-07-29",
      "start_dt": "2015-07-29 17:30:00",
      "start_time": "17:30:00",
      "venue_zip": "53598",
      "bernieID": 2292
    },
    {
      "attendee_count": 132,
      "capacity": "400",
      "id": "490",
      "id_obfuscated": "wrql",
      "latitude": "42.852760",
      "longitude": "-72.558281",
      "name": "Go Bernie!",
      "start_day": "2015-07-29",
      "start_dt": "2015-07-29 18:30:00",
      "start_time": "18:30:00",
      "venue_zip": "05301",
      "bernieID": 2293
    },
    {
      "attendee_count": 35,
      "capacity": "35",
      "id": "3309",
      "id_obfuscated": "4vxqr",
      "latitude": "29.744690",
      "longitude": "-95.390282",
      "name": "Bernie Speaks to America!",
      "start_day": "2015-07-29",
      "start_dt": "2015-07-29 17:30:00",
      "start_time": "17:30:00",
      "venue_zip": "77006",
      "bernieID": 2294
    },
    {
      "attendee_count": 7,
      "capacity": "15",
      "id": "494",
      "id_obfuscated": "wrqp",
      "latitude": "35.598274",
      "longitude": "-82.496147",
      "name": "Asheville For Bernie Supporters",
      "start_day": "2015-07-29",
      "start_dt": "2015-07-29 18:30:00",
      "start_time": "18:30:00",
      "venue_zip": "28805",
      "bernieID": 2295
    },
    {
      "attendee_count": 35,
      "capacity": "35",
      "id": "1518",
      "id_obfuscated": "4jvyp",
      "latitude": "40.782799",
      "longitude": "-73.977516",
      "name": "Upper West Side Meeting for Bernie",
      "start_day": "2015-07-29",
      "start_dt": "2015-07-29 18:30:00",
      "start_time": "18:30:00",
      "venue_zip": "10024",
      "bernieID": 2296
    },
    {
      "attendee_count": 331,
      "capacity": "400",
      "id": "1774",
      "id_obfuscated": "4jv35",
      "latitude": "42.352139",
      "longitude": "-83.061096",
      "name": "Michigan for Bernie Sanders Welcomes Detroit to Hopcat!",
      "start_day": "2015-07-29",
      "start_dt": "2015-07-29 18:30:00",
      "start_time": "18:30:00",
      "venue_zip": "48201",
      "bernieID": 2297
    },
    {
      "attendee_count": 16,
      "capacity": "80",
      "id": "3310",
      "id_obfuscated": "4vxqv",
      "latitude": "41.490959",
      "longitude": "-71.312759",
      "name": "Newport organizes for Bernie Sanders 2016",
      "start_day": "2015-07-29",
      "start_dt": "2015-07-29 18:30:00",
      "start_time": "18:30:00",
      "venue_zip": "02840",
      "bernieID": 2298
    },
    {
      "attendee_count": 11,
      "capacity": "40",
      "id": "3566",
      "id_obfuscated": "4vxf9",
      "latitude": "28.055391",
      "longitude": "-80.557976",
      "name": "Beachside SunBern wine/pot luck party",
      "start_day": "2015-07-29",
      "start_dt": "2015-07-29 18:30:00",
      "start_time": "18:30:00",
      "venue_zip": "32951",
      "bernieID": 2299
    },
    {
      "attendee_count": 10,
      "capacity": "20",
      "id": "3311",
      "id_obfuscated": "4vxqj",
      "latitude": "37.364178",
      "longitude": "-81.052887",
      "name": "Mercer County for Bernie Kickoff - Starbucks",
      "start_day": "2015-07-29",
      "start_dt": "2015-07-29 18:30:00",
      "start_time": "18:30:00",
      "venue_zip": "24740",
      "bernieID": 2300
    },
    {
      "attendee_count": 26,
      "capacity": "50",
      "id": "2032",
      "id_obfuscated": "4jjwz",
      "latitude": "42.087811",
      "longitude": "-86.485382",
      "name": "Southwest Michigan Grassroots for Bernie in Saint Joseph",
      "start_day": "2015-07-29",
      "start_dt": "2015-07-29 18:30:00",
      "start_time": "18:30:00",
      "venue_zip": "49085",
      "bernieID": 2301
    },
    {
      "attendee_count": 24,
      "capacity": "30",
      "id": "756",
      "id_obfuscated": "wgw",
      "latitude": "42.820644",
      "longitude": "-73.224075",
      "name": "Pownal for Bernie!",
      "start_day": "2015-07-29",
      "start_dt": "2015-07-29 18:30:00",
      "start_time": "18:30:00",
      "venue_zip": "05201",
      "bernieID": 2302
    },
    {
      "attendee_count": 8,
      "capacity": "20",
      "id": "2804",
      "id_obfuscated": "4v78b",
      "latitude": "35.384884",
      "longitude": "-77.992767",
      "name": "Goldsboro Organizing Meeting at 7pm",
      "start_day": "2015-07-29",
      "start_dt": "2015-07-29 18:30:00",
      "start_time": "18:30:00",
      "venue_zip": "27530",
      "bernieID": 2303
    },
    {
      "attendee_count": 8,
      "capacity": "50",
      "id": "3318",
      "id_obfuscated": "4vxqs",
      "latitude": "40.123402",
      "longitude": "-74.052742",
      "name": "Manasquan Bernie Viewing",
      "start_day": "2015-07-29",
      "start_dt": "2015-07-29 18:30:00",
      "start_time": "18:30:00",
      "venue_zip": "08736",
      "bernieID": 2304
    },
    {
      "attendee_count": 1,
      "capacity": "0",
      "id": "3830",
      "id_obfuscated": "4jttb",
      "latitude": "27.951355",
      "longitude": "-82.461693",
      "name": "Tampa for Bernie 2016",
      "start_day": "2015-07-29",
      "start_dt": "2015-07-29 18:30:00",
      "start_time": "18:30:00",
      "venue_zip": "33602",
      "bernieID": 2305
    },
    {
      "attendee_count": 20,
      "capacity": "20",
      "id": "2551",
      "id_obfuscated": "4v7gx",
      "latitude": "38.878254",
      "longitude": "-77.015259",
      "name": "Southwest DC for Bernie",
      "start_day": "2015-07-29",
      "start_dt": "2015-07-29 18:30:00",
      "start_time": "18:30:00",
      "venue_zip": "20024",
      "bernieID": 2306
    },
    {
      "attendee_count": 3,
      "capacity": "40",
      "id": "3319",
      "id_obfuscated": "4vxqp",
      "latitude": "43.475487",
      "longitude": "-72.541100",
      "name": "Reading Supports Bernie Meeting",
      "start_day": "2015-07-29",
      "start_dt": "2015-07-29 18:30:00",
      "start_time": "18:30:00",
      "venue_zip": "05062",
      "bernieID": 2307
    },
    {
      "attendee_count": 17,
      "capacity": "35",
      "id": "3064",
      "id_obfuscated": "4v7xl",
      "latitude": "29.462870",
      "longitude": "-98.507858",
      "name": "Texas stands with Bernie",
      "start_day": "2015-07-29",
      "start_dt": "2015-07-29 17:30:00",
      "start_time": "17:30:00",
      "venue_zip": "78212",
      "bernieID": 2308
    },
    {
      "attendee_count": 45,
      "capacity": "250",
      "id": "2809",
      "id_obfuscated": "4v78m",
      "latitude": "38.325867",
      "longitude": "-75.616234",
      "name": "Enough is enough! Salisbury, MD 21804",
      "start_day": "2015-07-29",
      "start_dt": "2015-07-29 18:30:00",
      "start_time": "18:30:00",
      "venue_zip": "21826",
      "bernieID": 2309
    },
    {
      "attendee_count": 19,
      "capacity": "20",
      "id": "3323",
      "id_obfuscated": "4vxqh",
      "latitude": "34.504490",
      "longitude": "-82.650475",
      "name": "Anderson County for Bernie",
      "start_day": "2015-07-29",
      "start_dt": "2015-07-29 18:30:00",
      "start_time": "18:30:00",
      "venue_zip": "29621",
      "bernieID": 2310
    },
    {
      "attendee_count": 20,
      "capacity": "20",
      "id": "1532",
      "id_obfuscated": "4jvy7",
      "latitude": "44.550407",
      "longitude": "-69.633003",
      "name": "\"Bernin Down the House\" Bernie for President Organizing Meeting",
      "start_day": "2015-07-29",
      "start_dt": "2015-07-29 18:30:00",
      "start_time": "18:30:00",
      "venue_zip": "04901",
      "bernieID": 2311
    },
    {
      "attendee_count": 15,
      "capacity": "15",
      "id": "2044",
      "id_obfuscated": "4jjw5",
      "latitude": "40.720097",
      "longitude": "-73.841476",
      "name": "Forest Hills for Bernie!",
      "start_day": "2015-07-29",
      "start_dt": "2015-07-29 18:30:00",
      "start_time": "18:30:00",
      "venue_zip": "11375",
      "bernieID": 2312
    },
    {
      "attendee_count": 9,
      "capacity": "9",
      "id": "2812",
      "id_obfuscated": "4v78f",
      "latitude": "40.814850",
      "longitude": "-73.952400",
      "name": "CUNY Students for Bernie",
      "start_day": "2015-07-29",
      "start_dt": "2015-07-29 18:30:00",
      "start_time": "18:30:00",
      "venue_zip": "10027",
      "bernieID": 2313
    },
    {
      "attendee_count": 15,
      "capacity": "15",
      "id": "3325",
      "id_obfuscated": "4vxqf",
      "latitude": "32.044456",
      "longitude": "-81.056488",
      "name": "Bernie Supporters in Savannah Meet & Greet (Location B) at Dave's House",
      "start_day": "2015-07-29",
      "start_dt": "2015-07-29 18:30:00",
      "start_time": "18:30:00",
      "venue_zip": "31404",
      "bernieID": 2314
    },
    {
      "attendee_count": 0,
      "capacity": "20",
      "id": "3837",
      "id_obfuscated": "4jtt8",
      "latitude": "33.791000",
      "longitude": "-84.205597",
      "name": "Pine Lake - Help Put Bernie in the White House!",
      "start_day": "2015-07-29",
      "start_dt": "2015-07-29 18:30:00",
      "start_time": "18:30:00",
      "venue_zip": "30072",
      "bernieID": 2315
    },
    {
      "attendee_count": 8,
      "capacity": "0",
      "id": "1468",
      "id_obfuscated": "4jv9q",
      "latitude": "39.962566",
      "longitude": "-105.509857",
      "name": "Nederland stands with Bernie!",
      "start_day": "2015-07-29",
      "start_dt": "2015-07-29 16:20:00",
      "start_time": "16:20:00",
      "venue_zip": "80466",
      "bernieID": 2316
    },
    {
      "attendee_count": 15,
      "capacity": "20",
      "id": "1599",
      "id_obfuscated": "4jvzw",
      "latitude": "33.750298",
      "longitude": "-78.941689",
      "name": "Introduction to the Bernie Sanders campaign",
      "start_day": "2015-07-29",
      "start_dt": "2015-07-29 18:15:00",
      "start_time": "18:15:00",
      "venue_zip": "29579",
      "bernieID": 2317
    },
    {
      "attendee_count": 24,
      "capacity": "50",
      "id": "2677",
      "id_obfuscated": "4v7pf",
      "latitude": "34.605247",
      "longitude": "-98.396973",
      "name": "BernieFest Texoma!",
      "start_day": "2015-07-29",
      "start_dt": "2015-07-29 17:15:00",
      "start_time": "17:15:00",
      "venue_zip": "73501",
      "bernieID": 2318
    },
    {
      "attendee_count": 121,
      "capacity": "125",
      "id": "396",
      "id_obfuscated": "wrbc",
      "latitude": "35.200165",
      "longitude": "-80.743683",
      "name": "Mecklenburg Wants Bernie!",
      "start_day": "2015-07-29",
      "start_dt": "2015-07-29 18:15:00",
      "start_time": "18:15:00",
      "venue_zip": "28234",
      "bernieID": 2319
    },
    {
      "attendee_count": 75,
      "capacity": "75",
      "id": "733",
      "id_obfuscated": "w4q",
      "latitude": "25.853168",
      "longitude": "-80.120415",
      "name": "Miami Beach BURGERFI Kickoff Campaign to Elect BERNIE SANDERS PRESIDENT 2016",
      "start_day": "2015-07-29",
      "start_dt": "2015-07-29 18:15:00",
      "start_time": "18:15:00",
      "venue_zip": "33140",
      "bernieID": 2320
    },
    {
      "attendee_count": 80,
      "capacity": "80",
      "id": "2543",
      "id_obfuscated": "4v7gc",
      "latitude": "27.771059",
      "longitude": "-82.659737",
      "name": "Feel the Bern in St. Pete!!!",
      "start_day": "2015-07-29",
      "start_dt": "2015-07-29 18:15:00",
      "start_time": "18:15:00",
      "venue_zip": "33712",
      "bernieID": 2321
    },
    {
      "attendee_count": 26,
      "capacity": "30",
      "id": "1751",
      "id_obfuscated": "4jv3r",
      "latitude": "35.039299",
      "longitude": "-81.976433",
      "name": "Bernie Sanders Strategy Meeting in Boiling Springs, SC",
      "start_day": "2015-07-29",
      "start_dt": "2015-07-29 18:09:00",
      "start_time": "18:09:00",
      "venue_zip": "29316",
      "bernieID": 2322
    },
    {
      "attendee_count": 6,
      "capacity": "20",
      "id": "3455",
      "id_obfuscated": "4vxdy",
      "latitude": "26.240381",
      "longitude": "-81.594742",
      "name": "Golden Gate Estates For Bernie",
      "start_day": "2015-07-29",
      "start_dt": "2015-07-29 18:08:00",
      "start_time": "18:08:00",
      "venue_zip": "34120",
      "bernieID": 2323
    },
    {
      "attendee_count": 6,
      "capacity": "40",
      "id": "3073",
      "id_obfuscated": "4vxwb",
      "latitude": "42.263775",
      "longitude": "-79.492294",
      "name": "Mayville Sanders Meeting",
      "start_day": "2015-07-29",
      "start_dt": "2015-07-29 18:00:00",
      "start_time": "18:00:00",
      "venue_zip": "14757",
      "bernieID": 2324
    },
    {
      "attendee_count": 5,
      "capacity": "0",
      "id": "1282",
      "id_obfuscated": "4jvqk",
      "latitude": "35.754044",
      "longitude": "-82.381615",
      "name": "Barnardsville Bernie party.",
      "start_day": "2015-07-29",
      "start_dt": "2015-07-29 18:00:00",
      "start_time": "18:00:00",
      "venue_zip": "28709",
      "bernieID": 2325
    },
    {
      "attendee_count": 29,
      "capacity": "0",
      "id": "259",
      "id_obfuscated": "wrwy",
      "latitude": "39.585316",
      "longitude": "-74.949997",
      "name": "Local Organizing Meeting/Cocktail Party for Bernie Sanders 2016",
      "start_day": "2015-07-29",
      "start_dt": "2015-07-29 18:00:00",
      "start_time": "18:00:00",
      "venue_zip": "08344",
      "bernieID": 2326
    },
    {
      "attendee_count": 192,
      "capacity": "0",
      "id": "1795",
      "id_obfuscated": "4jjtk",
      "latitude": "36.066387",
      "longitude": "-94.162628",
      "name": "Northwest Arkansas Organizing Meeting for Bernie Sanders",
      "start_day": "2015-07-29",
      "start_dt": "2015-07-29 17:00:00",
      "start_time": "17:00:00",
      "venue_zip": "72701",
      "bernieID": 2327
    },
    {
      "attendee_count": 7,
      "capacity": "8",
      "id": "2563",
      "id_obfuscated": "4v7yy",
      "latitude": "35.241383",
      "longitude": "-82.744049",
      "name": "Brevard Organizing Meeting",
      "start_day": "2015-07-29",
      "start_dt": "2015-07-29 18:00:00",
      "start_time": "18:00:00",
      "venue_zip": "28712",
      "bernieID": 2328
    },
    {
      "attendee_count": 14,
      "capacity": "32",
      "id": "2052",
      "id_obfuscated": "4v5zg",
      "latitude": "43.102448",
      "longitude": "-88.346329",
      "name": "Hartland Area Organization Meeting-Bernie Sanders",
      "start_day": "2015-07-29",
      "start_dt": "2015-07-29 17:00:00",
      "start_time": "17:00:00",
      "venue_zip": "53029",
      "bernieID": 2329
    },
    {
      "attendee_count": 40,
      "capacity": "40",
      "id": "1285",
      "id_obfuscated": "4jvq2",
      "latitude": "42.171139",
      "longitude": "-87.844513",
      "name": "SHARON SANDERS FOR BERNIE SANDERS NOW MOVED TO BLACKIE'S IN DEERFIELD.  SEE DETAILS BELOW.",
      "start_day": "2015-07-29",
      "start_dt": "2015-07-29 18:00:00",
      "start_time": "18:00:00",
      "venue_zip": "60015",
      "bernieID": 2330
    },
    {
      "attendee_count": 19,
      "capacity": "50",
      "id": "3335",
      "id_obfuscated": "4vxdz",
      "latitude": "40.720348",
      "longitude": "-74.043633",
      "name": "Downtown Jersey City Party for Bernie",
      "start_day": "2015-07-29",
      "start_dt": "2015-07-29 18:00:00",
      "start_time": "18:00:00",
      "venue_zip": "07302",
      "bernieID": 2331
    },
    {
      "attendee_count": 30,
      "capacity": "0",
      "id": "1288",
      "id_obfuscated": "4jvq7",
      "latitude": "42.121487",
      "longitude": "-87.827744",
      "name": "SHARON SANDERS FOR BERNIE SANDERS NOW MOVED TO BLACKIE'S IN DEERFIELD.  SEE DETAILS BELOW",
      "start_day": "2015-07-29",
      "start_dt": "2015-07-29 18:00:00",
      "start_time": "18:00:00",
      "venue_zip": "60062",
      "bernieID": 2332
    },
    {
      "attendee_count": 27,
      "capacity": "30",
      "id": "1290",
      "id_obfuscated": "4jvbt",
      "latitude": "41.325813",
      "longitude": "-72.968246",
      "name": "New Haven for Bernie",
      "start_day": "2015-07-29",
      "start_dt": "2015-07-29 18:00:00",
      "start_time": "18:00:00",
      "venue_zip": "06515",
      "bernieID": 2333
    },
    {
      "attendee_count": 1,
      "capacity": "0",
      "id": "3595",
      "id_obfuscated": "4vxhc",
      "latitude": "21.113199",
      "longitude": "-156.876495",
      "name": "Molokai for Bernie",
      "start_day": "2015-07-29",
      "start_dt": "2015-07-29 12:00:00",
      "start_time": "12:00:00",
      "venue_zip": "96748",
      "bernieID": 2334
    },
    {
      "attendee_count": 73,
      "capacity": "0",
      "id": "2828",
      "id_obfuscated": "4v73x",
      "latitude": "31.791330",
      "longitude": "-106.462715",
      "name": "El Paso & West Texas for Bernie Sanders",
      "start_day": "2015-07-29",
      "start_dt": "2015-07-29 16:00:00",
      "start_time": "16:00:00",
      "venue_zip": "79930",
      "bernieID": 2335
    },
    {
      "attendee_count": 25,
      "capacity": "25",
      "id": "2061",
      "id_obfuscated": "4v5z9",
      "latitude": "41.928204",
      "longitude": "-74.011162",
      "name": "Midtown Kingston for Bernie!",
      "start_day": "2015-07-29",
      "start_dt": "2015-07-29 18:00:00",
      "start_time": "18:00:00",
      "venue_zip": "12401",
      "bernieID": 2336
    },
    {
      "attendee_count": 13,
      "capacity": "0",
      "id": "1553",
      "id_obfuscated": "4jvcz",
      "latitude": "43.948811",
      "longitude": "-72.672653",
      "name": "Randolph (VT) for Bernie meetup",
      "start_day": "2015-07-29",
      "start_dt": "2015-07-29 18:00:00",
      "start_time": "18:00:00",
      "venue_zip": "05060",
      "bernieID": 2337
    },
    {
      "attendee_count": 75,
      "capacity": "75",
      "id": "2323",
      "id_obfuscated": "4v7j9",
      "latitude": "40.770115",
      "longitude": "-73.984856",
      "name": "Bernie Sanders Campaign Organizational Meeting at Fordham University Lincoln Center",
      "start_day": "2015-07-29",
      "start_dt": "2015-07-29 18:00:00",
      "start_time": "18:00:00",
      "venue_zip": "10023",
      "bernieID": 2338
    },
    {
      "attendee_count": 3,
      "capacity": "0",
      "id": "3859",
      "id_obfuscated": "4jtgy",
      "latitude": "42.495880",
      "longitude": "-90.664429",
      "name": "Team Dubuque Organizing Kick Off House Party!",
      "start_day": "2015-07-29",
      "start_dt": "2015-07-29 18:00:00",
      "start_time": "18:00:00",
      "venue_zip": "52001",
      "bernieID": 2339
    },
    {
      "attendee_count": 22,
      "capacity": "200",
      "id": "3095",
      "id_obfuscated": "4vxwh",
      "latitude": "34.175400",
      "longitude": "-116.287300",
      "name": "BERNIE 101",
      "start_day": "2015-07-29",
      "start_dt": "2015-07-29 18:00:00",
      "start_time": "18:00:00",
      "venue_zip": "92252",
      "bernieID": 2340
    },
    {
      "attendee_count": 129,
      "capacity": "0",
      "id": "794",
      "id_obfuscated": "wyw",
      "latitude": "39.625366",
      "longitude": "-78.228806",
      "name": "West Virginia Eastern Panhandle for Bernie Sanders",
      "start_day": "2015-07-29",
      "start_dt": "2015-07-29 18:00:00",
      "start_time": "18:00:00",
      "venue_zip": "25411",
      "bernieID": 2341
    },
    {
      "attendee_count": 0,
      "capacity": "30",
      "id": "3868",
      "id_obfuscated": "4jtgd",
      "latitude": "42.491337",
      "longitude": "-92.348190",
      "name": "House Party for the Bern",
      "start_day": "2015-07-29",
      "start_dt": "2015-07-29 18:00:00",
      "start_time": "18:00:00",
      "venue_zip": "50701",
      "bernieID": 2342
    },
    {
      "attendee_count": 3,
      "capacity": "20",
      "id": "2077",
      "id_obfuscated": "4v53w",
      "latitude": "44.520199",
      "longitude": "-109.061562",
      "name": "Bernie Sanders Summer Kickoff Meeting",
      "start_day": "2015-07-29",
      "start_dt": "2015-07-29 16:00:00",
      "start_time": "16:00:00",
      "venue_zip": "82414",
      "bernieID": 2343
    },
    {
      "attendee_count": 18,
      "capacity": "50",
      "id": "2846",
      "id_obfuscated": "4v7mf",
      "latitude": "39.960163",
      "longitude": "-75.202904",
      "name": "Berning For You, West Philadelphia Support",
      "start_day": "2015-07-29",
      "start_dt": "2015-07-29 18:00:00",
      "start_time": "18:00:00",
      "venue_zip": "19104",
      "bernieID": 2344
    },
    {
      "attendee_count": 18,
      "capacity": "30",
      "id": "1568",
      "id_obfuscated": "4jvkq",
      "latitude": "36.071487",
      "longitude": "-79.400360",
      "name": "This event is on JULY 21 at 6:00 PM!!! Graham, NC",
      "start_day": "2015-07-29",
      "start_dt": "2015-07-29 18:00:00",
      "start_time": "18:00:00",
      "venue_zip": "27253",
      "bernieID": 2345
    },
    {
      "attendee_count": 25,
      "capacity": "145",
      "id": "2854",
      "id_obfuscated": "4v7m7",
      "latitude": "32.539703",
      "longitude": "-84.867851",
      "name": "Feel the Bern in Columbus, GA!!",
      "start_day": "2015-07-29",
      "start_dt": "2015-07-29 18:00:00",
      "start_time": "18:00:00",
      "venue_zip": "31904",
      "bernieID": 2346
    },
    {
      "attendee_count": 20,
      "capacity": "20",
      "id": "1831",
      "id_obfuscated": "4jjrz",
      "latitude": "40.685406",
      "longitude": "-73.843521",
      "name": "Bernie Sanders in the OP (Ozone Park)",
      "start_day": "2015-07-29",
      "start_dt": "2015-07-29 18:00:00",
      "start_time": "18:00:00",
      "venue_zip": "11416",
      "bernieID": 2347
    },
    {
      "attendee_count": 2,
      "capacity": "0",
      "id": "2855",
      "id_obfuscated": "4v7mx",
      "latitude": "41.442539",
      "longitude": "-91.026070",
      "name": "Muscatine County Live Bernie Sanders Telecast Event",
      "start_day": "2015-07-29",
      "start_dt": "2015-07-29 18:00:00",
      "start_time": "18:00:00",
      "venue_zip": "52761",
      "bernieID": 2348
    },
    {
      "attendee_count": 10,
      "capacity": "10",
      "id": "1321",
      "id_obfuscated": "4jvsw",
      "latitude": "38.855518",
      "longitude": "-77.053253",
      "name": "The Crystal City Support Bernie Kickoff Party",
      "start_day": "2015-07-29",
      "start_dt": "2015-07-29 18:00:00",
      "start_time": "18:00:00",
      "venue_zip": "22202",
      "bernieID": 2349
    },
    {
      "attendee_count": 12,
      "capacity": "20",
      "id": "554",
      "id_obfuscated": "wwy",
      "latitude": "44.948921",
      "longitude": "-93.064178",
      "name": "Feel the Bern in Mounds Park, Saint Paul",
      "start_day": "2015-07-29",
      "start_dt": "2015-07-29 18:00:00",
      "start_time": "18:00:00",
      "venue_zip": "55106",
      "bernieID": 2350
    },
    {
      "attendee_count": 19,
      "capacity": "40",
      "id": "3114",
      "id_obfuscated": "4vx4h",
      "latitude": "44.438797",
      "longitude": "-92.147827",
      "name": "Pepin Bernie Sanders Live Broadcast",
      "start_day": "2015-07-29",
      "start_dt": "2015-07-29 17:00:00",
      "start_time": "17:00:00",
      "venue_zip": "54759",
      "bernieID": 2351
    },
    {
      "attendee_count": 17,
      "capacity": "30",
      "id": "1324",
      "id_obfuscated": "4jvbx",
      "latitude": "44.185799",
      "longitude": "-72.817917",
      "name": "Vermont Baby Bumps for Bernie!",
      "start_day": "2015-07-29",
      "start_dt": "2015-07-29 18:00:00",
      "start_time": "18:00:00",
      "venue_zip": "05673",
      "bernieID": 2352
    },
    {
      "attendee_count": 600,
      "capacity": "600",
      "id": "2348",
      "id_obfuscated": "4v7w4",
      "latitude": "39.111626",
      "longitude": "-84.512222",
      "name": "Bernie Online at The Woodward",
      "start_day": "2015-07-29",
      "start_dt": "2015-07-29 18:00:00",
      "start_time": "18:00:00",
      "venue_zip": "45202",
      "bernieID": 2353
    },
    {
      "attendee_count": 15,
      "capacity": "24",
      "id": "1075",
      "id_obfuscated": "4jvrr",
      "latitude": "47.754280",
      "longitude": "-90.347885",
      "name": "Grand Marais first meeting for Bernie Sanders' campaign",
      "start_day": "2015-07-29",
      "start_dt": "2015-07-29 17:00:00",
      "start_time": "17:00:00",
      "venue_zip": "55604",
      "bernieID": 2354
    },
    {
      "attendee_count": 73,
      "capacity": "0",
      "id": "820",
      "id_obfuscated": "wdl",
      "latitude": "36.970432",
      "longitude": "-82.557571",
      "name": "Southwest Virginians for Bernie Sanders Organizing Meeting/Potluck",
      "start_day": "2015-07-29",
      "start_dt": "2015-07-29 18:00:00",
      "start_time": "18:00:00",
      "venue_zip": "24293",
      "bernieID": 2355
    },
    {
      "attendee_count": 15,
      "capacity": "60",
      "id": "1077",
      "id_obfuscated": "4jvtm",
      "latitude": "40.581890",
      "longitude": "-105.101883",
      "name": "Fort Collins Bernie Kickoff",
      "start_day": "2015-07-29",
      "start_dt": "2015-07-29 16:00:00",
      "start_time": "16:00:00",
      "venue_zip": "80521",
      "bernieID": 2356
    },
    {
      "attendee_count": 23,
      "capacity": "0",
      "id": "1591",
      "id_obfuscated": "4jvkh",
      "latitude": "41.294334",
      "longitude": "-92.645012",
      "name": "Oskaloosa Meeting for Sanders",
      "start_day": "2015-07-29",
      "start_dt": "2015-07-29 18:00:00",
      "start_time": "18:00:00",
      "venue_zip": "52577",
      "bernieID": 2357
    },
    {
      "attendee_count": 11,
      "capacity": "15",
      "id": "2616",
      "id_obfuscated": "4v72p",
      "latitude": "33.098808",
      "longitude": "-96.091850",
      "name": "Greenville Texas Bernie organizing event",
      "start_day": "2015-07-29",
      "start_dt": "2015-07-29 18:00:00",
      "start_time": "18:00:00",
      "venue_zip": "75402",
      "bernieID": 2358
    },
    {
      "attendee_count": 20,
      "capacity": "20",
      "id": "1850",
      "id_obfuscated": "4jjvz",
      "latitude": "33.097469",
      "longitude": "-117.118309",
      "name": "Bernie in Esco!",
      "start_day": "2015-07-29",
      "start_dt": "2015-07-29 18:00:00",
      "start_time": "18:00:00",
      "venue_zip": "92029",
      "bernieID": 2359
    },
    {
      "attendee_count": 7,
      "capacity": "20",
      "id": "3386",
      "id_obfuscated": "4vx97",
      "latitude": "41.281651",
      "longitude": "-74.463478",
      "name": "Warwick, NY Bernie Supporters",
      "start_day": "2015-07-29",
      "start_dt": "2015-07-29 18:00:00",
      "start_time": "18:00:00",
      "venue_zip": "10990",
      "bernieID": 2360
    },
    {
      "attendee_count": 55,
      "capacity": "80",
      "id": "1598",
      "id_obfuscated": "4jvzj",
      "latitude": "35.501728",
      "longitude": "-97.605400",
      "name": "NW Oklahoma City",
      "start_day": "2015-07-29",
      "start_dt": "2015-07-29 18:00:00",
      "start_time": "18:00:00",
      "venue_zip": "73122",
      "bernieID": 2361
    },
    {
      "attendee_count": 26,
      "capacity": "100",
      "id": "576",
      "id_obfuscated": "wtc",
      "latitude": "43.003887",
      "longitude": "-83.739746",
      "name": "Flint Michigan Bernie Boosters",
      "start_day": "2015-07-29",
      "start_dt": "2015-07-29 18:00:00",
      "start_time": "18:00:00",
      "venue_zip": "48532",
      "bernieID": 2362
    },
    {
      "attendee_count": 8,
      "capacity": "0",
      "id": "2887",
      "id_obfuscated": "4v7kp",
      "latitude": "40.864403",
      "longitude": "-73.920425",
      "name": "Bernie @ Esto's",
      "start_day": "2015-07-29",
      "start_dt": "2015-07-29 18:00:00",
      "start_time": "18:00:00",
      "venue_zip": "10034",
      "bernieID": 2363
    },
    {
      "attendee_count": 16,
      "capacity": "0",
      "id": "2632",
      "id_obfuscated": "4v7sl",
      "latitude": "41.590878",
      "longitude": "-73.943916",
      "name": "New Hamburg/Wappingers event for Bernie Sanders",
      "start_day": "2015-07-29",
      "start_dt": "2015-07-29 18:00:00",
      "start_time": "18:00:00",
      "venue_zip": "12590",
      "bernieID": 2364
    },
    {
      "attendee_count": 70,
      "capacity": "70",
      "id": "1097",
      "id_obfuscated": "4jr5j",
      "latitude": "34.116272",
      "longitude": "-118.589905",
      "name": "Topanga for Bernie!  Poolside Potluck Launch Party",
      "start_day": "2015-07-29",
      "start_dt": "2015-07-29 18:00:00",
      "start_time": "18:00:00",
      "venue_zip": "90290",
      "bernieID": 2365
    },
    {
      "attendee_count": 145,
      "capacity": "150",
      "id": "844",
      "id_obfuscated": "ws8",
      "latitude": "38.026096",
      "longitude": "-78.466774",
      "name": "Stand with Bernie at Firefly Charlottesville",
      "start_day": "2015-07-29",
      "start_dt": "2015-07-29 18:00:00",
      "start_time": "18:00:00",
      "venue_zip": "22903",
      "bernieID": 2366
    },
    {
      "attendee_count": 86,
      "capacity": "200",
      "id": "334",
      "id_obfuscated": "wrvd",
      "latitude": "27.728336",
      "longitude": "-82.679390",
      "name": "Saving our Democracy and Planet with Bernie",
      "start_day": "2015-07-29",
      "start_dt": "2015-07-29 18:00:00",
      "start_time": "18:00:00",
      "venue_zip": "33711",
      "bernieID": 2367
    },
    {
      "attendee_count": 20,
      "capacity": "20",
      "id": "1358",
      "id_obfuscated": "4jvgd",
      "latitude": "41.698849",
      "longitude": "-90.496353",
      "name": "North Scott progressives for Bernie Sanders",
      "start_day": "2015-07-29",
      "start_dt": "2015-07-29 18:00:00",
      "start_time": "18:00:00",
      "venue_zip": "52748",
      "bernieID": 2368
    },
    {
      "attendee_count": 10,
      "capacity": "10",
      "id": "1614",
      "id_obfuscated": "4jv9x",
      "latitude": "42.360249",
      "longitude": "-71.067764",
      "name": "Boston Beacon Hill",
      "start_day": "2015-07-29",
      "start_dt": "2015-07-29 18:00:00",
      "start_time": "18:00:00",
      "venue_zip": "02114",
      "bernieID": 2369
    },
    {
      "attendee_count": 16,
      "capacity": "0",
      "id": "2127",
      "id_obfuscated": "4v5cl",
      "latitude": "30.638365",
      "longitude": "-85.361320",
      "name": "Compass Lake in the Hills for Bernie",
      "start_day": "2015-07-29",
      "start_dt": "2015-07-29 18:00:00",
      "start_time": "18:00:00",
      "venue_zip": "32420",
      "bernieID": 2370
    },
    {
      "attendee_count": 60,
      "capacity": "60",
      "id": "2128",
      "id_obfuscated": "4v5c8",
      "latitude": "39.040222",
      "longitude": "-77.192665",
      "name": "Potomac for Bernie",
      "start_day": "2015-07-29",
      "start_dt": "2015-07-29 18:00:00",
      "start_time": "18:00:00",
      "venue_zip": "20854",
      "bernieID": 2371
    },
    {
      "attendee_count": 7,
      "capacity": "20",
      "id": "2388",
      "id_obfuscated": "4v7t7",
      "latitude": "20.305714",
      "longitude": "-103.272980",
      "name": "Lakeside Progressives of Chapala",
      "start_day": "2015-07-29",
      "start_dt": "2015-07-29 18:00:00",
      "start_time": "18:00:00",
      "venue_zip": "92591",
      "bernieID": 2372
    },
    {
      "attendee_count": 148,
      "capacity": "325",
      "id": "342",
      "id_obfuscated": "wrr8",
      "latitude": "33.499691",
      "longitude": "-86.794785",
      "name": "#Bernieham gets organized!",
      "start_day": "2015-07-29",
      "start_dt": "2015-07-29 17:00:00",
      "start_time": "17:00:00",
      "venue_zip": "35205",
      "bernieID": 2373
    },
    {
      "attendee_count": 50,
      "capacity": "50",
      "id": "1622",
      "id_obfuscated": "4jv8l",
      "latitude": "32.715946",
      "longitude": "-96.853775",
      "name": "Dallas Feels The Bern! Bernie Sanders for President 2016",
      "start_day": "2015-07-29",
      "start_dt": "2015-07-29 17:00:00",
      "start_time": "17:00:00",
      "venue_zip": "75224",
      "bernieID": 2374
    },
    {
      "attendee_count": 75,
      "capacity": "75",
      "id": "1878",
      "id_obfuscated": "4jv7z",
      "latitude": "40.820004",
      "longitude": "-74.210732",
      "name": "Bernie for President! Forest Street Montclair, New Jersey",
      "start_day": "2015-07-29",
      "start_dt": "2015-07-29 18:00:00",
      "start_time": "18:00:00",
      "venue_zip": "07042",
      "bernieID": 2375
    },
    {
      "attendee_count": 21,
      "capacity": "0",
      "id": "856",
      "id_obfuscated": "wbh",
      "latitude": "37.754383",
      "longitude": "-100.047981",
      "name": "Southwest Kansas Rally for Bernie",
      "start_day": "2015-07-29",
      "start_dt": "2015-07-29 18:00:00",
      "start_time": "18:00:00",
      "venue_zip": "67801",
      "bernieID": 2376
    },
    {
      "attendee_count": 26,
      "capacity": "60",
      "id": "3160",
      "id_obfuscated": "4vxvm",
      "latitude": "42.006237",
      "longitude": "-87.661110",
      "name": "East Rogers Park ( 49th Ward, Chicago )",
      "start_day": "2015-07-29",
      "start_dt": "2015-07-29 18:00:00",
      "start_time": "18:00:00",
      "venue_zip": "60626",
      "bernieID": 2377
    },
    {
      "attendee_count": 50,
      "capacity": "50",
      "id": "1628",
      "id_obfuscated": "4jv8d",
      "latitude": "35.971233",
      "longitude": "-83.917267",
      "name": "knoxville for bernie organizers",
      "start_day": "2015-07-29",
      "start_dt": "2015-07-29 18:00:00",
      "start_time": "18:00:00",
      "venue_zip": "37915",
      "bernieID": 2378
    },
    {
      "attendee_count": 76,
      "capacity": "165",
      "id": "2653",
      "id_obfuscated": "4v7sz",
      "latitude": "33.945450",
      "longitude": "-83.408798",
      "name": "Athens for Bernie Sanders: Organizing with Bernie",
      "start_day": "2015-07-29",
      "start_dt": "2015-07-29 18:00:00",
      "start_time": "18:00:00",
      "venue_zip": "30606",
      "bernieID": 2379
    },
    {
      "attendee_count": 26,
      "capacity": "20",
      "id": "1118",
      "id_obfuscated": "4jr58",
      "latitude": "28.113214",
      "longitude": "-82.602440",
      "name": "Organize Odessa for Bernie",
      "start_day": "2015-07-29",
      "start_dt": "2015-07-29 18:00:00",
      "start_time": "18:00:00",
      "venue_zip": "33556",
      "bernieID": 2380
    },
    {
      "attendee_count": 32,
      "capacity": "50",
      "id": "614",
      "id_obfuscated": "wr7",
      "latitude": "41.004669",
      "longitude": "-91.965500",
      "name": "Sander's Panders of Southeast Iowa",
      "start_day": "2015-07-29",
      "start_dt": "2015-07-29 17:00:00",
      "start_time": "17:00:00",
      "venue_zip": "52556",
      "bernieID": 2381
    },
    {
      "attendee_count": 30,
      "capacity": "0",
      "id": "2150",
      "id_obfuscated": "4v5kj",
      "latitude": "40.452423",
      "longitude": "-80.014008",
      "name": "Allegheny Commons Picnic/Potluck/Bake Sale for Bernie!",
      "start_day": "2015-07-29",
      "start_dt": "2015-07-29 18:00:00",
      "start_time": "18:00:00",
      "venue_zip": "15212",
      "bernieID": 2382
    },
    {
      "attendee_count": 48,
      "capacity": "48",
      "id": "359",
      "id_obfuscated": "wrjp",
      "latitude": "38.963493",
      "longitude": "-77.101723",
      "name": "Bernie Sanders Supporters Meet",
      "start_day": "2015-07-29",
      "start_dt": "2015-07-29 18:00:00",
      "start_time": "18:00:00",
      "venue_zip": "20816",
      "bernieID": 2383
    },
    {
      "attendee_count": 21,
      "capacity": "30",
      "id": "1895",
      "id_obfuscated": "4jvxs",
      "latitude": "42.406197",
      "longitude": "-71.128571",
      "name": "Teele Square organizing party for Bernie",
      "start_day": "2015-07-29",
      "start_dt": "2015-07-29 18:00:00",
      "start_time": "18:00:00",
      "venue_zip": "02144",
      "bernieID": 2384
    },
    {
      "attendee_count": 17,
      "capacity": "120",
      "id": "1128",
      "id_obfuscated": "4jr7l",
      "latitude": "37.188824",
      "longitude": "-93.258308",
      "name": "Ozarks Progressives for Bernie Sanders",
      "start_day": "2015-07-29",
      "start_dt": "2015-07-29 18:00:00",
      "start_time": "18:00:00",
      "venue_zip": "65804",
      "bernieID": 2385
    },
    {
      "attendee_count": 238,
      "capacity": "600",
      "id": "2408",
      "id_obfuscated": "4v7rx",
      "latitude": "35.595295",
      "longitude": "-82.558609",
      "name": "\"Feeling the Bern\" for Bernie in Asheville, NC",
      "start_day": "2015-07-29",
      "start_dt": "2015-07-29 18:00:00",
      "start_time": "18:00:00",
      "venue_zip": "28801",
      "bernieID": 2386
    },
    {
      "attendee_count": 48,
      "capacity": "85",
      "id": "2920",
      "id_obfuscated": "4v7z7",
      "latitude": "29.736189",
      "longitude": "-95.532417",
      "name": "Houston WestChase for Bernie",
      "start_day": "2015-07-29",
      "start_dt": "2015-07-29 17:00:00",
      "start_time": "17:00:00",
      "venue_zip": "77063",
      "bernieID": 2387
    },
    {
      "attendee_count": 0,
      "capacity": "0",
      "id": "3690",
      "id_obfuscated": "4vxmy",
      "latitude": "41.087803",
      "longitude": "-73.919106",
      "name": "Supporters of Bernie Sanders (July 29 Organizing Meeting)",
      "start_day": "2015-07-29",
      "start_dt": "2015-07-29 18:00:00",
      "start_time": "18:00:00",
      "venue_zip": "10960",
      "bernieID": 2388
    },
    {
      "attendee_count": 13,
      "capacity": "50",
      "id": "2411",
      "id_obfuscated": "4v7vv",
      "latitude": "44.474922",
      "longitude": "-73.015182",
      "name": "House Gathering for Bernie",
      "start_day": "2015-07-29",
      "start_dt": "2015-07-29 18:00:00",
      "start_time": "18:00:00",
      "venue_zip": "05465",
      "bernieID": 2389
    },
    {
      "attendee_count": 14,
      "capacity": "30",
      "id": "877",
      "id_obfuscated": "wpm",
      "latitude": "41.768078",
      "longitude": "-83.643288",
      "name": "Lambertville Bernie Sanders Party",
      "start_day": "2015-07-29",
      "start_dt": "2015-07-29 18:00:00",
      "start_time": "18:00:00",
      "venue_zip": "48144",
      "bernieID": 2390
    },
    {
      "attendee_count": 20,
      "capacity": "20",
      "id": "1133",
      "id_obfuscated": "4jr7w",
      "latitude": "37.535961",
      "longitude": "-77.450470",
      "name": "Oregon Hill, Richmond, VA Bernie Sanders Organizing Meeting",
      "start_day": "2015-07-29",
      "start_dt": "2015-07-29 18:00:00",
      "start_time": "18:00:00",
      "venue_zip": "23220",
      "bernieID": 2391
    },
    {
      "attendee_count": 15,
      "capacity": "16",
      "id": "2669",
      "id_obfuscated": "4v7pb",
      "latitude": "27.425850",
      "longitude": "-82.441048",
      "name": "East Manatee for Bernie",
      "start_day": "2015-07-29",
      "start_dt": "2015-07-29 18:00:00",
      "start_time": "18:00:00",
      "venue_zip": "34202",
      "bernieID": 2392
    },
    {
      "attendee_count": 3,
      "capacity": "10",
      "id": "3437",
      "id_obfuscated": "4vxy3",
      "latitude": "45.360424",
      "longitude": "-90.351334",
      "name": "Westboro July 29 Organizing Meeting",
      "start_day": "2015-07-29",
      "start_dt": "2015-07-29 18:00:00",
      "start_time": "18:00:00",
      "venue_zip": "54490",
      "bernieID": 2393
    },
    {
      "attendee_count": 10,
      "capacity": "10",
      "id": "1650",
      "id_obfuscated": "4jvf8",
      "latitude": "42.991974",
      "longitude": "-78.843803",
      "name": "Elect Bernie Sanders",
      "start_day": "2015-07-29",
      "start_dt": "2015-07-29 18:00:00",
      "start_time": "18:00:00",
      "venue_zip": "14150",
      "bernieID": 2394
    },
    {
      "attendee_count": 14,
      "capacity": "150",
      "id": "2931",
      "id_obfuscated": "4v73b",
      "latitude": "47.126530",
      "longitude": "-88.586060",
      "name": "UP Supporters For Bernie Sanders",
      "start_day": "2015-07-29",
      "start_dt": "2015-07-29 18:00:00",
      "start_time": "18:00:00",
      "venue_zip": "49930",
      "bernieID": 2395
    },
    {
      "attendee_count": 8,
      "capacity": "0",
      "id": "1396",
      "id_obfuscated": "4jvl5",
      "latitude": "36.972980",
      "longitude": "-93.163345",
      "name": "Bernie in 2016 Organizing Meeting in Ozark MO",
      "start_day": "2015-07-29",
      "start_dt": "2015-07-29 18:00:00",
      "start_time": "18:00:00",
      "venue_zip": "65721",
      "bernieID": 2396
    },
    {
      "attendee_count": 27,
      "capacity": "240",
      "id": "1653",
      "id_obfuscated": "4jvfp",
      "latitude": "45.078903",
      "longitude": "-83.442520",
      "name": "Sunrise Side Solidarity for Bernie",
      "start_day": "2015-07-29",
      "start_dt": "2015-07-29 18:00:00",
      "start_time": "18:00:00",
      "venue_zip": "49707",
      "bernieID": 2397
    },
    {
      "attendee_count": 9,
      "capacity": "12",
      "id": "2165",
      "id_obfuscated": "4v5kc",
      "latitude": "33.745419",
      "longitude": "-96.545334",
      "name": "Denison Supports Bernie",
      "start_day": "2015-07-29",
      "start_dt": "2015-07-29 18:00:00",
      "start_time": "18:00:00",
      "venue_zip": "75020",
      "bernieID": 2398
    },
    {
      "attendee_count": 14,
      "capacity": "15",
      "id": "1398",
      "id_obfuscated": "4jvlx",
      "latitude": "40.762150",
      "longitude": "-73.908707",
      "name": "Burning for Bernie",
      "start_day": "2015-07-29",
      "start_dt": "2015-07-29 18:00:00",
      "start_time": "18:00:00",
      "venue_zip": "11103",
      "bernieID": 2399
    },
    {
      "attendee_count": 8,
      "capacity": "30",
      "id": "1910",
      "id_obfuscated": "4jvx7",
      "latitude": "42.335224",
      "longitude": "-72.504692",
      "name": "Bernie Meeting in South Amherst< MA  7 pm, July 29",
      "start_day": "2015-07-29",
      "start_dt": "2015-07-29 18:00:00",
      "start_time": "18:00:00",
      "venue_zip": "01002",
      "bernieID": 2400
    }
  ]
}