{
  "results": [
    {
      "attendee_count": 7,
      "capacity": "25",
      "id": "2811",
      "id_obfuscated": "4v785",
      "latitude": "22.226328",
      "longitude": "-159.477264",
      "name": "Princeville kick off event for Bernie Sanders",
      "start_day": "2015-07-29",
      "start_dt": "2015-07-29 19:00:00",
      "start_time": "19:00:00",
      "venue_zip": "96722",
      "bernieID": 1
    },
    {
      "attendee_count": 40,
      "capacity": "40",
      "id": "573",
      "id_obfuscated": "wwj",
      "latitude": "20.764214",
      "longitude": "-156.458282",
      "name": "Kihei Pool Party for Bernie 2016!",
      "start_day": "2015-07-29",
      "start_dt": "2015-07-29 18:00:00",
      "start_time": "18:00:00",
      "venue_zip": "96753",
      "bernieID": 2
    },
    {
      "attendee_count": 30,
      "capacity": "30",
      "id": "867",
      "id_obfuscated": "wpq",
      "latitude": "30.252453",
      "longitude": "-97.743767",
      "name": "Travis Heights/78704/Downtown Bernie Sanders Gathering",
      "start_day": "2015-07-29",
      "start_dt": "2015-07-29 21:00:00",
      "start_time": "21:00:00",
      "venue_zip": "78704",
      "bernieID": 3
    },
    {
      "attendee_count": 28,
      "capacity": "40",
      "id": "1406",
      "id_obfuscated": "4jvql",
      "latitude": "20.017317",
      "longitude": "-155.674774",
      "name": "Kohala Hui for Bernie",
      "start_day": "2015-07-29",
      "start_dt": "2015-07-29 18:00:00",
      "start_time": "18:00:00",
      "venue_zip": "96743",
      "bernieID": 4
    },
    {
      "attendee_count": 28,
      "capacity": "65",
      "id": "3572",
      "id_obfuscated": "4vxf3",
      "latitude": "33.815235",
      "longitude": "-116.473396",
      "name": "Coachella Valley For Bernie Sanders - Metropolitan Community Church of the Coachella Valley",
      "start_day": "2015-07-29",
      "start_dt": "2015-07-29 18:30:00",
      "start_time": "18:30:00",
      "venue_zip": "92234",
      "bernieID": 5
    },
    {
      "attendee_count": 61,
      "capacity": "70",
      "id": "1342",
      "id_obfuscated": "4jvsf",
      "latitude": "39.767521",
      "longitude": "-105.047585",
      "name": "Bernie Sanders' LIVE video address in Denver Highlands",
      "start_day": "2015-07-29",
      "start_dt": "2015-07-29 20:00:00",
      "start_time": "20:00:00",
      "venue_zip": "80212",
      "bernieID": 6
    },
    {
      "attendee_count": 21,
      "capacity": "150",
      "id": "3395",
      "id_obfuscated": "4vxp2",
      "latitude": "48.474689",
      "longitude": "-122.323738",
      "name": "Who is Bernie Sanders?",
      "start_day": "2015-07-29",
      "start_dt": "2015-07-29 19:00:00",
      "start_time": "19:00:00",
      "venue_zip": "98233",
      "bernieID": 7
    },
    {
      "attendee_count": 20,
      "capacity": "20",
      "id": "471",
      "id_obfuscated": "wrgs",
      "latitude": "38.532948",
      "longitude": "-90.322845",
      "name": "Organize for Bernie-- Affton Meeting",
      "start_day": "2015-07-29",
      "start_dt": "2015-07-29 18:00:00",
      "start_time": "18:00:00",
      "venue_zip": "63123",
      "bernieID": 8
    },
    {
      "attendee_count": 0,
      "capacity": "0",
      "id": "2263",
      "id_obfuscated": "4v5hq",
      "latitude": "41.865925",
      "longitude": "-103.662781",
      "name": "Who is Bernie Sanders?",
      "start_day": "2015-07-29",
      "start_dt": "2015-07-29 20:00:00",
      "start_time": "20:00:00",
      "venue_zip": "69361",
      "bernieID": 9
    },
    {
      "attendee_count": 2,
      "capacity": "50",
      "id": "3593",
      "id_obfuscated": "4vxh8",
      "latitude": "40.579521",
      "longitude": "-111.929070",
      "name": "Hear Bernie Sanders in West Salt Lake City",
      "start_day": "2015-07-29",
      "start_dt": "2015-07-29 19:30:00",
      "start_time": "19:30:00",
      "venue_zip": "84104",
      "bernieID": 10
    },
    {
      "attendee_count": 18,
      "capacity": "25",
      "id": "283",
      "id_obfuscated": "wrww",
      "latitude": "33.486607",
      "longitude": "-117.584366",
      "name": "Organization Kick Off Meeting to Get Bernie Sanders Elected",
      "start_day": "2015-07-29",
      "start_dt": "2015-07-29 19:30:00",
      "start_time": "19:30:00",
      "venue_zip": "92673",
      "bernieID": 11
    },
    {
      "attendee_count": 4,
      "capacity": "25",
      "id": "3482",
      "id_obfuscated": "4vxkd",
      "latitude": "43.151264",
      "longitude": "-90.253761",
      "name": "Clyde, Avoca, Spring Green Area Meet-up for Bernie",
      "start_day": "2015-07-29",
      "start_dt": "2015-07-29 19:30:00",
      "start_time": "19:30:00",
      "venue_zip": "53506",
      "bernieID": 12
    },
    {
      "attendee_count": 39,
      "capacity": "50",
      "id": "3227",
      "id_obfuscated": "4vxsr",
      "latitude": "21.299646",
      "longitude": "-157.860535",
      "name": "Hawaii for Bernie Downtown Gathering",
      "start_day": "2015-07-29",
      "start_dt": "2015-07-29 16:30:00",
      "start_time": "16:30:00",
      "venue_zip": "96813",
      "bernieID": 13
    },
    {
      "attendee_count": 47,
      "capacity": "45",
      "id": "2464",
      "id_obfuscated": "4v7q3",
      "latitude": "34.069508",
      "longitude": "-118.059639",
      "name": "San Gabriel for Bernie Sanders",
      "start_day": "2015-07-29",
      "start_dt": "2015-07-29 19:30:00",
      "start_time": "19:30:00",
      "venue_zip": "91731",
      "bernieID": 14
    },
    {
      "attendee_count": 12,
      "capacity": "12",
      "id": "977",
      "id_obfuscated": "w2b",
      "latitude": "33.880402",
      "longitude": "-117.855499",
      "name": "Bernie Sanders Organization kick off event in placentia",
      "start_day": "2015-07-29",
      "start_dt": "2015-07-29 22:30:00",
      "start_time": "22:30:00",
      "venue_zip": "92870",
      "bernieID": 15
    },
    {
      "attendee_count": 15,
      "capacity": "15",
      "id": "841",
      "id_obfuscated": "wsd",
      "latitude": "36.518993",
      "longitude": "-121.933571",
      "name": "Monterey Voters for Bernie",
      "start_day": "2015-07-29",
      "start_dt": "2015-07-29 19:09:00",
      "start_time": "19:09:00",
      "venue_zip": "93923",
      "bernieID": 16
    },
    {
      "attendee_count": 15,
      "capacity": "15",
      "id": "3224",
      "id_obfuscated": "4vxb7",
      "latitude": "38.625755",
      "longitude": "-121.312767",
      "name": "Carmichael for Bernie",
      "start_day": "2015-07-29",
      "start_dt": "2015-07-29 19:08:00",
      "start_time": "19:08:00",
      "venue_zip": "95608",
      "bernieID": 17
    },
    {
      "attendee_count": 28,
      "capacity": "30",
      "id": "768",
      "id_obfuscated": "wy2",
      "latitude": "47.770790",
      "longitude": "-122.281319",
      "name": "Lake Forest Park for Bernie Sanders",
      "start_day": "2015-07-29",
      "start_dt": "2015-07-29 19:00:00",
      "start_time": "19:00:00",
      "venue_zip": "98155",
      "bernieID": 18
    },
    {
      "attendee_count": 10,
      "capacity": "10",
      "id": "3072",
      "id_obfuscated": "4vxwq",
      "latitude": "42.251083",
      "longitude": "-122.784775",
      "name": "12 Guests in Talent--6:30 PM",
      "start_day": "2015-07-29",
      "start_dt": "2015-07-29 19:00:00",
      "start_time": "19:00:00",
      "venue_zip": "97540",
      "bernieID": 19
    },
    {
      "attendee_count": 130,
      "capacity": "130",
      "id": "513",
      "id_obfuscated": "wjv",
      "latitude": "37.386841",
      "longitude": "-121.990913",
      "name": "#FeelTheBern Sunnyvale Organising Meeting FULL",
      "start_day": "2015-07-29",
      "start_dt": "2015-07-29 19:00:00",
      "start_time": "19:00:00",
      "venue_zip": "94085",
      "bernieID": 20
    },
    {
      "attendee_count": 20,
      "capacity": "20",
      "id": "2561",
      "id_obfuscated": "4v7ys",
      "latitude": "34.137074",
      "longitude": "-118.400764",
      "name": "Studio City 2",
      "start_day": "2015-07-29",
      "start_dt": "2015-07-29 19:00:00",
      "start_time": "19:00:00",
      "venue_zip": "91604",
      "bernieID": 21
    },
    {
      "attendee_count": 0,
      "capacity": "10",
      "id": "3585",
      "id_obfuscated": "4vxhq",
      "latitude": "33.854748",
      "longitude": "-112.612869",
      "name": "Morristown July 29 Organizing Meeting",
      "start_day": "2015-07-29",
      "start_dt": "2015-07-29 19:00:00",
      "start_time": "19:00:00",
      "venue_zip": "85342",
      "bernieID": 22
    },
    {
      "attendee_count": 59,
      "capacity": "0",
      "id": "770",
      "id_obfuscated": "wyy",
      "latitude": "37.854961",
      "longitude": "-122.282890",
      "name": "Berkeley Berns",
      "start_day": "2015-07-29",
      "start_dt": "2015-07-29 19:00:00",
      "start_time": "19:00:00",
      "venue_zip": "94702",
      "bernieID": 23
    },
    {
      "attendee_count": 19,
      "capacity": "20",
      "id": "1026",
      "id_obfuscated": "4jrxg",
      "latitude": "34.052673",
      "longitude": "-118.370895",
      "name": "Carthay Square: Mid-City Meet-Up",
      "start_day": "2015-07-29",
      "start_dt": "2015-07-29 19:00:00",
      "start_time": "19:00:00",
      "venue_zip": "90035",
      "bernieID": 24
    },
    {
      "attendee_count": 20,
      "capacity": "20",
      "id": "2818",
      "id_obfuscated": "4v735",
      "latitude": "36.569511",
      "longitude": "-121.917168",
      "name": "carmel",
      "start_day": "2015-07-29",
      "start_dt": "2015-07-29 19:00:00",
      "start_time": "19:00:00",
      "venue_zip": "93923",
      "bernieID": 25
    },
    {
      "attendee_count": 40,
      "capacity": "40",
      "id": "1027",
      "id_obfuscated": "4jrxl",
      "latitude": "36.675060",
      "longitude": "-121.652786",
      "name": "Salinas Loves Bernie Potluck Organizing Kickoff!",
      "start_day": "2015-07-29",
      "start_dt": "2015-07-29 19:00:00",
      "start_time": "19:00:00",
      "venue_zip": "93901",
      "bernieID": 26
    },
    {
      "attendee_count": 30,
      "capacity": "0",
      "id": "1797",
      "id_obfuscated": "4jjtd",
      "latitude": "38.058430",
      "longitude": "-120.367462",
      "name": "Organizing Kickoff Event on Wednesday, July 29th, for Bernie Sanders, 2016 Presidential Candidate  - Columbia, CA",
      "start_day": "2015-07-29",
      "start_dt": "2015-07-29 19:00:00",
      "start_time": "19:00:00",
      "venue_zip": "95310",
      "bernieID": 27
    },
    {
      "attendee_count": 0,
      "capacity": "0",
      "id": "2309",
      "id_obfuscated": "4v7vz",
      "latitude": "63.894142",
      "longitude": "-149.124680",
      "name": "Stampede for Bernie Organizing Meeting at 6pm AKDT",
      "start_day": "2015-07-29",
      "start_dt": "2015-07-29 18:00:00",
      "start_time": "18:00:00",
      "venue_zip": "99743",
      "bernieID": 28
    },
    {
      "attendee_count": 4,
      "capacity": "25",
      "id": "3333",
      "id_obfuscated": "4vxdc",
      "latitude": "36.100048",
      "longitude": "-115.289162",
      "name": "Who is Berni Sanders?",
      "start_day": "2015-07-29",
      "start_dt": "2015-07-29 19:00:00",
      "start_time": "19:00:00",
      "venue_zip": "89147",
      "bernieID": 29
    },
    {
      "attendee_count": 30,
      "capacity": "32",
      "id": "774",
      "id_obfuscated": "wy8",
      "latitude": "39.759609",
      "longitude": "-121.628441",
      "name": "Paradise.. that would be Bernie as President!",
      "start_day": "2015-07-29",
      "start_dt": "2015-07-29 19:00:00",
      "start_time": "19:00:00",
      "venue_zip": "95969",
      "bernieID": 30
    },
    {
      "attendee_count": 20,
      "capacity": "20",
      "id": "2054",
      "id_obfuscated": "4v5zq",
      "latitude": "45.617764",
      "longitude": "-122.498978",
      "name": "Vancouver for Bernie",
      "start_day": "2015-07-29",
      "start_dt": "2015-07-29 19:00:00",
      "start_time": "19:00:00",
      "venue_zip": "98684",
      "bernieID": 31
    },
    {
      "attendee_count": 100,
      "capacity": "100",
      "id": "2310",
      "id_obfuscated": "4v7v3",
      "latitude": "34.004581",
      "longitude": "-118.453773",
      "name": "Venetians for Bernie",
      "start_day": "2015-07-29",
      "start_dt": "2015-07-29 19:00:00",
      "start_time": "19:00:00",
      "venue_zip": "90291",
      "bernieID": 32
    },
    {
      "attendee_count": 8,
      "capacity": "8",
      "id": "3078",
      "id_obfuscated": "4vxwg",
      "latitude": "37.567554",
      "longitude": "-122.333946",
      "name": "North San Mateo Sanders Viewing",
      "start_day": "2015-07-29",
      "start_dt": "2015-07-29 19:00:00",
      "start_time": "19:00:00",
      "venue_zip": "94402",
      "bernieID": 33
    },
    {
      "attendee_count": 6,
      "capacity": "18",
      "id": "3846",
      "id_obfuscated": "4jt4c",
      "latitude": "35.291553",
      "longitude": "-119.033073",
      "name": "Bakersfield for Bernie Sanders Organizing Event",
      "start_day": "2015-07-29",
      "start_dt": "2015-07-29 19:00:00",
      "start_time": "19:00:00",
      "venue_zip": "93313",
      "bernieID": 34
    },
    {
      "attendee_count": 15,
      "capacity": "15",
      "id": "519",
      "id_obfuscated": "wjw",
      "latitude": "37.947781",
      "longitude": "-122.346375",
      "name": "Organizing Meeting for Bernie Sanders for President",
      "start_day": "2015-07-29",
      "start_dt": "2015-07-29 19:00:00",
      "start_time": "19:00:00",
      "venue_zip": "94804",
      "bernieID": 35
    },
    {
      "attendee_count": 24,
      "capacity": "24",
      "id": "1799",
      "id_obfuscated": "4jjt9",
      "latitude": "45.545853",
      "longitude": "-122.607590",
      "name": "NE Portland Friends of Bernie",
      "start_day": "2015-07-29",
      "start_dt": "2015-07-29 19:00:00",
      "start_time": "19:00:00",
      "venue_zip": "97213",
      "bernieID": 36
    },
    {
      "attendee_count": 18,
      "capacity": "0",
      "id": "3591",
      "id_obfuscated": "4vxhg",
      "latitude": "46.730778",
      "longitude": "-117.001381",
      "name": "Moscow, Idaho at Mikey's on Main Street",
      "start_day": "2015-07-29",
      "start_dt": "2015-07-29 19:00:00",
      "start_time": "19:00:00",
      "venue_zip": "83843",
      "bernieID": 37
    },
    {
      "attendee_count": 154,
      "capacity": "0",
      "id": "520",
      "id_obfuscated": "wjb",
      "latitude": "48.731262",
      "longitude": "-122.503075",
      "name": "Live Bernie Sanders Town Hall Meeting -Bellingham Washington",
      "start_day": "2015-07-29",
      "start_dt": "2015-07-29 19:00:00",
      "start_time": "19:00:00",
      "venue_zip": "98220",
      "bernieID": 38
    },
    {
      "attendee_count": 75,
      "capacity": "125",
      "id": "3081",
      "id_obfuscated": "4vxwf",
      "latitude": "32.741611",
      "longitude": "-117.130119",
      "name": "Bernie at Bluefoot Bar in North Park",
      "start_day": "2015-07-29",
      "start_dt": "2015-07-29 19:00:00",
      "start_time": "19:00:00",
      "venue_zip": "92104",
      "bernieID": 39
    },
    {
      "attendee_count": 62,
      "capacity": "0",
      "id": "266",
      "id_obfuscated": "wrwk",
      "latitude": "34.038406",
      "longitude": "-118.614136",
      "name": "Feel the Bernie",
      "start_day": "2015-07-29",
      "start_dt": "2015-07-29 19:00:00",
      "start_time": "19:00:00",
      "venue_zip": "90265",
      "bernieID": 40
    },
    {
      "attendee_count": 30,
      "capacity": "30",
      "id": "522",
      "id_obfuscated": "wjl",
      "latitude": "47.317127",
      "longitude": "-122.423042",
      "name": "NE Tacoma Grassroots meeting to support Bernie Sanders for President",
      "start_day": "2015-07-29",
      "start_dt": "2015-07-29 19:00:00",
      "start_time": "19:00:00",
      "venue_zip": "98422",
      "bernieID": 41
    },
    {
      "attendee_count": 24,
      "capacity": "24",
      "id": "3082",
      "id_obfuscated": "4vxwc",
      "latitude": "33.381210",
      "longitude": "-111.923347",
      "name": "It's Bernie's Time in Tempe!",
      "start_day": "2015-07-29",
      "start_dt": "2015-07-29 19:00:00",
      "start_time": "19:00:00",
      "venue_zip": "85282",
      "bernieID": 42
    },
    {
      "attendee_count": 25,
      "capacity": "25",
      "id": "1803",
      "id_obfuscated": "4jjrt",
      "latitude": "34.056293",
      "longitude": "-118.438377",
      "name": "West LA for the Bernie Revolution",
      "start_day": "2015-07-29",
      "start_dt": "2015-07-29 19:00:00",
      "start_time": "19:00:00",
      "venue_zip": "90024",
      "bernieID": 43
    },
    {
      "attendee_count": 5,
      "capacity": "0",
      "id": "2827",
      "id_obfuscated": "4v7mg",
      "latitude": "37.813423",
      "longitude": "-121.296967",
      "name": "Lathrop/Tracy feel the Bern",
      "start_day": "2015-07-29",
      "start_dt": "2015-07-29 19:00:00",
      "start_time": "19:00:00",
      "venue_zip": "95330",
      "bernieID": 44
    },
    {
      "attendee_count": 10,
      "capacity": "10",
      "id": "1292",
      "id_obfuscated": "4jvq3",
      "latitude": "35.192440",
      "longitude": "-106.661880",
      "name": "Eagle Ranch Albuquerque",
      "start_day": "2015-07-29",
      "start_dt": "2015-07-29 20:00:00",
      "start_time": "20:00:00",
      "venue_zip": "87114",
      "bernieID": 45
    },
    {
      "attendee_count": 9,
      "capacity": "11",
      "id": "525",
      "id_obfuscated": "wj2",
      "latitude": "45.350498",
      "longitude": "-122.866096",
      "name": "Sherwood for Bernie!!",
      "start_day": "2015-07-29",
      "start_dt": "2015-07-29 19:00:00",
      "start_time": "19:00:00",
      "venue_zip": "97140",
      "bernieID": 46
    },
    {
      "attendee_count": 28,
      "capacity": "30",
      "id": "1293",
      "id_obfuscated": "4jvqm",
      "latitude": "39.600086",
      "longitude": "-104.943123",
      "name": "Centennial for Bernie!",
      "start_day": "2015-07-29",
      "start_dt": "2015-07-29 20:00:00",
      "start_time": "20:00:00",
      "venue_zip": "80121",
      "bernieID": 47
    },
    {
      "attendee_count": 12,
      "capacity": "0",
      "id": "2317",
      "id_obfuscated": "4v7jr",
      "latitude": "35.629990",
      "longitude": "-105.194992",
      "name": "Las Vegas, NM organizing for Bernie 2016",
      "start_day": "2015-07-29",
      "start_dt": "2015-07-29 20:00:00",
      "start_time": "20:00:00",
      "venue_zip": "87701-0910",
      "bernieID": 48
    },
    {
      "attendee_count": 10,
      "capacity": "10",
      "id": "782",
      "id_obfuscated": "wy5",
      "latitude": "39.979408",
      "longitude": "-105.236618",
      "name": "Boots on the ground for Bernie in Boulder",
      "start_day": "2015-07-29",
      "start_dt": "2015-07-29 20:00:00",
      "start_time": "20:00:00",
      "venue_zip": "80305",
      "bernieID": 49
    },
    {
      "attendee_count": 20,
      "capacity": "20",
      "id": "272",
      "id_obfuscated": "wrj5",
      "latitude": "37.968647",
      "longitude": "-121.305626",
      "name": "Stockton for Bernie",
      "start_day": "2015-07-29",
      "start_dt": "2015-07-29 19:00:00",
      "start_time": "19:00:00",
      "venue_zip": "95204",
      "bernieID": 50
    },
    {
      "attendee_count": 38,
      "capacity": "40",
      "id": "528",
      "id_obfuscated": "wvy",
      "latitude": "34.536999",
      "longitude": "-112.453499",
      "name": "Prescott For Bernie",
      "start_day": "2015-07-29",
      "start_dt": "2015-07-29 19:00:00",
      "start_time": "19:00:00",
      "venue_zip": "86303",
      "bernieID": 51
    },
    {
      "attendee_count": 11,
      "capacity": "20",
      "id": "2064",
      "id_obfuscated": "4v5zx",
      "latitude": "32.266380",
      "longitude": "-106.744247",
      "name": "Estados Serenos Neighborhood Get Together: Why You Want to Support the Bernie Sanders Candidacy for President",
      "start_day": "2015-07-29",
      "start_dt": "2015-07-29 20:00:00",
      "start_time": "20:00:00",
      "venue_zip": "88001",
      "bernieID": 52
    },
    {
      "attendee_count": 15,
      "capacity": "20",
      "id": "1041",
      "id_obfuscated": "4jrx3",
      "latitude": "38.865417",
      "longitude": "-121.321236",
      "name": "Lincoln Munch & Meet: A Bernie Sanders Event",
      "start_day": "2015-07-29",
      "start_dt": "2015-07-29 19:00:00",
      "start_time": "19:00:00",
      "venue_zip": "95648",
      "bernieID": 53
    },
    {
      "attendee_count": 20,
      "capacity": "20",
      "id": "1297",
      "id_obfuscated": "4jvbl",
      "latitude": "33.838192",
      "longitude": "-118.187630",
      "name": "Californians for Independence",
      "start_day": "2015-07-29",
      "start_dt": "2015-07-29 19:00:00",
      "start_time": "19:00:00",
      "venue_zip": "90807",
      "bernieID": 54
    },
    {
      "attendee_count": 25,
      "capacity": "25",
      "id": "3346",
      "id_obfuscated": "4vx2y",
      "latitude": "34.165398",
      "longitude": "-119.229385",
      "name": "Hollywood Beach Bernie Party with the Berning Sensations!",
      "start_day": "2015-07-29",
      "start_dt": "2015-07-29 19:00:00",
      "start_time": "19:00:00",
      "venue_zip": "93035",
      "bernieID": 55
    },
    {
      "attendee_count": 42,
      "capacity": "84",
      "id": "3603",
      "id_obfuscated": "4vxhx",
      "latitude": "34.541603",
      "longitude": "-112.468681",
      "name": "Prescottonians for Bernie",
      "start_day": "2015-07-29",
      "start_dt": "2015-07-29 19:00:00",
      "start_time": "19:00:00",
      "venue_zip": "86303",
      "bernieID": 56
    },
    {
      "attendee_count": 12,
      "capacity": "12",
      "id": "2580",
      "id_obfuscated": "4v7y3",
      "latitude": "42.194576",
      "longitude": "-122.709480",
      "name": "IN ASHLAND, ROOM FOR A DOZEN OR SO",
      "start_day": "2015-07-29",
      "start_dt": "2015-07-29 19:00:00",
      "start_time": "19:00:00",
      "venue_zip": "97520",
      "bernieID": 57
    },
    {
      "attendee_count": 108,
      "capacity": "130",
      "id": "533",
      "id_obfuscated": "wvf",
      "latitude": "33.990284",
      "longitude": "-117.347260",
      "name": "Inland Empire for Bernie Sanders",
      "start_day": "2015-07-29",
      "start_dt": "2015-07-29 19:00:00",
      "start_time": "19:00:00",
      "venue_zip": "92507",
      "bernieID": 58
    },
    {
      "attendee_count": 50,
      "capacity": "65",
      "id": "789",
      "id_obfuscated": "wyj",
      "latitude": "46.138168",
      "longitude": "-122.938164",
      "name": "Join the Bernie Bandwagon",
      "start_day": "2015-07-29",
      "start_dt": "2015-07-29 19:00:00",
      "start_time": "19:00:00",
      "venue_zip": "98632",
      "bernieID": 59
    },
    {
      "attendee_count": 20,
      "capacity": "20",
      "id": "2325",
      "id_obfuscated": "4v7jb",
      "latitude": "39.312500",
      "longitude": "-123.747299",
      "name": "Mendocino Meeting for Bernie 2016",
      "start_day": "2015-07-29",
      "start_dt": "2015-07-29 19:00:00",
      "start_time": "19:00:00",
      "venue_zip": "95460",
      "bernieID": 60
    },
    {
      "attendee_count": 8,
      "capacity": "35",
      "id": "2581",
      "id_obfuscated": "4v7ym",
      "latitude": "59.662708",
      "longitude": "-151.462189",
      "name": "Homer For Bernie Sanders",
      "start_day": "2015-07-29",
      "start_dt": "2015-07-29 18:00:00",
      "start_time": "18:00:00",
      "venue_zip": "99603",
      "bernieID": 61
    },
    {
      "attendee_count": 55,
      "capacity": "0",
      "id": "534",
      "id_obfuscated": "wv2",
      "latitude": "33.678890",
      "longitude": "-117.154671",
      "name": "Menifee valley 4 Bernie sanders 2016",
      "start_day": "2015-07-29",
      "start_dt": "2015-07-29 19:00:00",
      "start_time": "19:00:00",
      "venue_zip": "92584",
      "bernieID": 62
    },
    {
      "attendee_count": 10,
      "capacity": "10",
      "id": "2326",
      "id_obfuscated": "4v7js",
      "latitude": "34.056385",
      "longitude": "-118.355217",
      "name": "Mid-City Meet-up for Bernie",
      "start_day": "2015-07-29",
      "start_dt": "2015-07-29 19:00:00",
      "start_time": "19:00:00",
      "venue_zip": "90019",
      "bernieID": 63
    },
    {
      "attendee_count": 18,
      "capacity": "20",
      "id": "791",
      "id_obfuscated": "wyr",
      "latitude": "37.908047",
      "longitude": "-122.308777",
      "name": "South Richmond Organizing Group",
      "start_day": "2015-07-29",
      "start_dt": "2015-07-29 19:00:00",
      "start_time": "19:00:00",
      "venue_zip": "94804",
      "bernieID": 64
    },
    {
      "attendee_count": 25,
      "capacity": "25",
      "id": "536",
      "id_obfuscated": "wvz",
      "latitude": "45.560844",
      "longitude": "-122.628647",
      "name": "Portland Campaign Meetup Live Berniecast",
      "start_day": "2015-07-29",
      "start_dt": "2015-07-29 19:00:00",
      "start_time": "19:00:00",
      "venue_zip": "97211",
      "bernieID": 65
    },
    {
      "attendee_count": 25,
      "capacity": "25",
      "id": "1048",
      "id_obfuscated": "4jvtr",
      "latitude": "37.353176",
      "longitude": "-122.074806",
      "name": "Los Altos for Bernie Sanders House Party",
      "start_day": "2015-07-29",
      "start_dt": "2015-07-29 19:00:00",
      "start_time": "19:00:00",
      "venue_zip": "94024",
      "bernieID": 66
    },
    {
      "attendee_count": 19,
      "capacity": "50",
      "id": "3097",
      "id_obfuscated": "4vx4g",
      "latitude": "47.551540",
      "longitude": "-122.277901",
      "name": "Labor loves Bernie, Hillman City, Seattle",
      "start_day": "2015-07-29",
      "start_dt": "2015-07-29 19:00:00",
      "start_time": "19:00:00",
      "venue_zip": "98118",
      "bernieID": 67
    },
    {
      "attendee_count": 205,
      "capacity": "0",
      "id": "1050",
      "id_obfuscated": "4jvtj",
      "latitude": "34.169090",
      "longitude": "-118.116943",
      "name": "Bernie 2016 kickoff in Pasadena",
      "start_day": "2015-07-29",
      "start_dt": "2015-07-29 19:00:00",
      "start_time": "19:00:00",
      "venue_zip": "91104",
      "bernieID": 68
    },
    {
      "attendee_count": 8,
      "capacity": "8",
      "id": "2842",
      "id_obfuscated": "4v7m3",
      "latitude": "33.392799",
      "longitude": "-117.529602",
      "name": "It's time for Bernie Sanders",
      "start_day": "2015-07-29",
      "start_dt": "2015-07-29 19:00:00",
      "start_time": "19:00:00",
      "venue_zip": "92672",
      "bernieID": 69
    },
    {
      "attendee_count": 15,
      "capacity": "15",
      "id": "1821",
      "id_obfuscated": "4jjrs",
      "latitude": "47.627178",
      "longitude": "-122.290695",
      "name": "Madison Park Feels the Bern",
      "start_day": "2015-07-29",
      "start_dt": "2015-07-29 19:00:00",
      "start_time": "19:00:00",
      "venue_zip": "98112",
      "bernieID": 70
    },
    {
      "attendee_count": 18,
      "capacity": "50",
      "id": "3358",
      "id_obfuscated": "4vx28",
      "latitude": "39.446358",
      "longitude": "-123.797989",
      "name": "Bragging for Bernie",
      "start_day": "2015-07-29",
      "start_dt": "2015-07-29 19:00:00",
      "start_time": "19:00:00",
      "venue_zip": "95437",
      "bernieID": 71
    },
    {
      "attendee_count": 150,
      "capacity": "150",
      "id": "543",
      "id_obfuscated": "wvh",
      "latitude": "37.669746",
      "longitude": "-120.999100",
      "name": "Feel the Bern, Modesto",
      "start_day": "2015-07-29",
      "start_dt": "2015-07-29 19:00:00",
      "start_time": "19:00:00",
      "venue_zip": "95350",
      "bernieID": 72
    },
    {
      "attendee_count": 6,
      "capacity": "15",
      "id": "3615",
      "id_obfuscated": "4vx5j",
      "latitude": "47.571091",
      "longitude": "-122.288902",
      "name": "Bernie Sanders Organizing Meeting in Mt. Baker Neighborhood, Seattle",
      "start_day": "2015-07-29",
      "start_dt": "2015-07-29 19:00:00",
      "start_time": "19:00:00",
      "venue_zip": "98144",
      "bernieID": 73
    },
    {
      "attendee_count": 20,
      "capacity": "20",
      "id": "1824",
      "id_obfuscated": "4jjr3",
      "latitude": "37.908047",
      "longitude": "-122.308777",
      "name": "Bernie Sanders South Richmond Organizing Party",
      "start_day": "2015-07-29",
      "start_dt": "2015-07-29 19:00:00",
      "start_time": "19:00:00",
      "venue_zip": "94804",
      "bernieID": 74
    },
    {
      "attendee_count": 16,
      "capacity": "17",
      "id": "2080",
      "id_obfuscated": "4v539",
      "latitude": "47.440990",
      "longitude": "-122.190331",
      "name": "South Renton Bernie Sanders for President Organizing Mtg.",
      "start_day": "2015-07-29",
      "start_dt": "2015-07-29 19:00:00",
      "start_time": "19:00:00",
      "venue_zip": "98055",
      "bernieID": 75
    },
    {
      "attendee_count": 1,
      "capacity": "100",
      "id": "3872",
      "id_obfuscated": "4jtg7",
      "latitude": "33.748009",
      "longitude": "-117.865440",
      "name": "An Introduction to Bernie Sanders",
      "start_day": "2015-07-29",
      "start_dt": "2015-07-29 19:00:00",
      "start_time": "19:00:00",
      "venue_zip": "92701",
      "bernieID": 76
    },
    {
      "attendee_count": 13,
      "capacity": "0",
      "id": "1825",
      "id_obfuscated": "4jjrm",
      "latitude": "38.092602",
      "longitude": "-108.289398",
      "name": "San Miguel County for Bernie Sanders",
      "start_day": "2015-07-29",
      "start_dt": "2015-07-29 20:00:00",
      "start_time": "20:00:00",
      "venue_zip": "81423",
      "bernieID": 77
    },
    {
      "attendee_count": 6,
      "capacity": "35",
      "id": "3105",
      "id_obfuscated": "4vx42",
      "latitude": "42.051235",
      "longitude": "-124.266441",
      "name": "Brookings/Harbor \"Organizing for Bernie\" Event",
      "start_day": "2015-07-29",
      "start_dt": "2015-07-29 19:00:00",
      "start_time": "19:00:00",
      "venue_zip": "97415",
      "bernieID": 78
    },
    {
      "attendee_count": 25,
      "capacity": "25",
      "id": "290",
      "id_obfuscated": "wr48",
      "latitude": "36.971149",
      "longitude": "-121.973251",
      "name": "Santa Cruz 4 Bernie",
      "start_day": "2015-07-29",
      "start_dt": "2015-07-29 19:00:00",
      "start_time": "19:00:00",
      "venue_zip": "95062",
      "bernieID": 79
    },
    {
      "attendee_count": 20,
      "capacity": "20",
      "id": "1314",
      "id_obfuscated": "4jvb5",
      "latitude": "45.438217",
      "longitude": "-122.804497",
      "name": "Tigard Organizes for Bernie 2016",
      "start_day": "2015-07-29",
      "start_dt": "2015-07-29 19:00:00",
      "start_time": "19:00:00",
      "venue_zip": "97223",
      "bernieID": 80
    },
    {
      "attendee_count": 21,
      "capacity": "0",
      "id": "2594",
      "id_obfuscated": "4v7d8",
      "latitude": "39.525082",
      "longitude": "-119.816002",
      "name": "The Jungle - Reno",
      "start_day": "2015-07-29",
      "start_dt": "2015-07-29 19:00:00",
      "start_time": "19:00:00",
      "venue_zip": "89501",
      "bernieID": 81
    },
    {
      "attendee_count": 8,
      "capacity": "10",
      "id": "2851",
      "id_obfuscated": "4v7hj",
      "latitude": "45.143532",
      "longitude": "-122.526299",
      "name": "Molalla area",
      "start_day": "2015-07-29",
      "start_dt": "2015-07-29 19:00:00",
      "start_time": "19:00:00",
      "venue_zip": "97038",
      "bernieID": 82
    },
    {
      "attendee_count": 21,
      "capacity": "0",
      "id": "3107",
      "id_obfuscated": "4vx48",
      "latitude": "47.211548",
      "longitude": "-123.100380",
      "name": "Shelton for Bernie",
      "start_day": "2015-07-29",
      "start_dt": "2015-07-29 19:00:00",
      "start_time": "19:00:00",
      "venue_zip": "98584",
      "bernieID": 83
    },
    {
      "attendee_count": 4,
      "capacity": "0",
      "id": "292",
      "id_obfuscated": "wr4m",
      "latitude": "40.555431",
      "longitude": "-122.351509",
      "name": "meet up",
      "start_day": "2015-07-29",
      "start_dt": "2015-07-29 19:00:00",
      "start_time": "19:00:00",
      "venue_zip": "96002",
      "bernieID": 84
    },
    {
      "attendee_count": 75,
      "capacity": "75",
      "id": "1828",
      "id_obfuscated": "4jjrf",
      "latitude": "47.261414",
      "longitude": "-122.445175",
      "name": "Bernie Sanders 2016, Tacoma Washington Organizing Kickoff!",
      "start_day": "2015-07-29",
      "start_dt": "2015-07-29 19:00:00",
      "start_time": "19:00:00",
      "venue_zip": "98402",
      "bernieID": 85
    },
    {
      "attendee_count": 20,
      "capacity": "20",
      "id": "1061",
      "id_obfuscated": "4jvtg",
      "latitude": "33.803707",
      "longitude": "-118.300575",
      "name": "Harbor City for Bernie Sanders",
      "start_day": "2015-07-29",
      "start_dt": "2015-07-29 19:00:00",
      "start_time": "19:00:00",
      "venue_zip": "90710",
      "bernieID": 86
    },
    {
      "attendee_count": 45,
      "capacity": "45",
      "id": "2085",
      "id_obfuscated": "4v53y",
      "latitude": "37.769772",
      "longitude": "-122.408974",
      "name": "SOMA Wants Sanders",
      "start_day": "2015-07-29",
      "start_dt": "2015-07-29 19:00:00",
      "start_time": "19:00:00",
      "venue_zip": "94103",
      "bernieID": 87
    },
    {
      "attendee_count": 30,
      "capacity": "30",
      "id": "1062",
      "id_obfuscated": "4jvtl",
      "latitude": "37.816998",
      "longitude": "-122.240463",
      "name": "Oakland Bern Party",
      "start_day": "2015-07-29",
      "start_dt": "2015-07-29 19:00:00",
      "start_time": "19:00:00",
      "venue_zip": "94610",
      "bernieID": 88
    },
    {
      "attendee_count": 25,
      "capacity": "25",
      "id": "2086",
      "id_obfuscated": "4v53d",
      "latitude": "38.595230",
      "longitude": "-121.407799",
      "name": "Bernie organizing meeting",
      "start_day": "2015-07-29",
      "start_dt": "2015-07-29 19:00:00",
      "start_time": "19:00:00",
      "venue_zip": "95825",
      "bernieID": 89
    },
    {
      "attendee_count": 30,
      "capacity": "30",
      "id": "295",
      "id_obfuscated": "wr43",
      "latitude": "37.804420",
      "longitude": "-122.198036",
      "name": "Bernie's Best!",
      "start_day": "2015-07-29",
      "start_dt": "2015-07-29 19:00:00",
      "start_time": "19:00:00",
      "venue_zip": "94602",
      "bernieID": 90
    },
    {
      "attendee_count": 10,
      "capacity": "10",
      "id": "2343",
      "id_obfuscated": "4v7wt",
      "latitude": "32.229248",
      "longitude": "-110.931717",
      "name": "Sam Hughes neighborhood",
      "start_day": "2015-07-29",
      "start_dt": "2015-07-29 19:00:00",
      "start_time": "19:00:00",
      "venue_zip": "85716",
      "bernieID": 91
    },
    {
      "attendee_count": 10,
      "capacity": "10",
      "id": "2599",
      "id_obfuscated": "4v7dd",
      "latitude": "45.732243",
      "longitude": "-121.486008",
      "name": "White Salmon Bernie Bash",
      "start_day": "2015-07-29",
      "start_dt": "2015-07-29 19:00:00",
      "start_time": "19:00:00",
      "venue_zip": "98672",
      "bernieID": 92
    },
    {
      "attendee_count": 16,
      "capacity": "75",
      "id": "2856",
      "id_obfuscated": "4v7hq",
      "latitude": "39.680775",
      "longitude": "-104.945160",
      "name": "Join the Revolution: Elect Bernie President",
      "start_day": "2015-07-29",
      "start_dt": "2015-07-29 20:00:00",
      "start_time": "20:00:00",
      "venue_zip": "80210",
      "bernieID": 93
    },
    {
      "attendee_count": 20,
      "capacity": "20",
      "id": "3112",
      "id_obfuscated": "4vx43",
      "latitude": "33.744736",
      "longitude": "-118.328819",
      "name": "WATCH BERNIE TELL IT LIKE IT IS",
      "start_day": "2015-07-29",
      "start_dt": "2015-07-29 19:00:00",
      "start_time": "19:00:00",
      "venue_zip": "90275",
      "bernieID": 94
    },
    {
      "attendee_count": 75,
      "capacity": "75",
      "id": "1833",
      "id_obfuscated": "4jjvj",
      "latitude": "34.130836",
      "longitude": "-118.394806",
      "name": "Studio City Organizing meeting for Bernie",
      "start_day": "2015-07-29",
      "start_dt": "2015-07-29 19:00:00",
      "start_time": "19:00:00",
      "venue_zip": "91604",
      "bernieID": 95
    },
    {
      "attendee_count": 35,
      "capacity": "35",
      "id": "2345",
      "id_obfuscated": "4v7ws",
      "latitude": "34.160847",
      "longitude": "-118.349205",
      "name": "Burbank is Bernin'",
      "start_day": "2015-07-29",
      "start_dt": "2015-07-29 19:00:00",
      "start_time": "19:00:00",
      "venue_zip": "91505",
      "bernieID": 96
    },
    {
      "attendee_count": 21,
      "capacity": "40",
      "id": "2857",
      "id_obfuscated": "4v7hb",
      "latitude": "47.311378",
      "longitude": "-119.558380",
      "name": "Ephrata WA for Bernie Sanders Organizing  Kickoff",
      "start_day": "2015-07-29",
      "start_dt": "2015-07-29 19:00:00",
      "start_time": "19:00:00",
      "venue_zip": "98823",
      "bernieID": 97
    },
    {
      "attendee_count": 30,
      "capacity": "30",
      "id": "298",
      "id_obfuscated": "wr45",
      "latitude": "38.555981",
      "longitude": "-121.705078",
      "name": "Davis, CA For Bernie Sanders",
      "start_day": "2015-07-29",
      "start_dt": "2015-07-29 19:00:00",
      "start_time": "19:00:00",
      "venue_zip": "95618",
      "bernieID": 98
    },
    {
      "attendee_count": 30,
      "capacity": "30",
      "id": "1066",
      "id_obfuscated": "4jvtk",
      "latitude": "44.025536",
      "longitude": "-123.122849",
      "name": "Eugene's Bernie Sanders Brigade",
      "start_day": "2015-07-29",
      "start_dt": "2015-07-29 19:00:00",
      "start_time": "19:00:00",
      "venue_zip": "97405",
      "bernieID": 99
    },
    {
      "attendee_count": 15,
      "capacity": "15",
      "id": "1578",
      "id_obfuscated": "4jvkc",
      "latitude": "45.786327",
      "longitude": "-108.508041",
      "name": "Organizing Kickoff Meeting - Billings, MT",
      "start_day": "2015-07-29",
      "start_dt": "2015-07-29 20:00:00",
      "start_time": "20:00:00",
      "venue_zip": "59101",
      "bernieID": 100
    },
    {
      "attendee_count": 32,
      "capacity": "32",
      "id": "2346",
      "id_obfuscated": "4v7wp",
      "latitude": "34.028214",
      "longitude": "-118.411438",
      "name": "Feel the BERN in West LA!",
      "start_day": "2015-07-29",
      "start_dt": "2015-07-29 19:00:00",
      "start_time": "19:00:00",
      "venue_zip": "90034",
      "bernieID": 101
    },
    {
      "attendee_count": 19,
      "capacity": "200",
      "id": "2603",
      "id_obfuscated": "4v7d7",
      "latitude": "37.898735",
      "longitude": "-122.637436",
      "name": "Stinson-Bolinas-Muir Beach kickoff",
      "start_day": "2015-07-29",
      "start_dt": "2015-07-29 19:00:00",
      "start_time": "19:00:00",
      "venue_zip": "94970",
      "bernieID": 102
    },
    {
      "attendee_count": 45,
      "capacity": "50",
      "id": "2604",
      "id_obfuscated": "4v7dc",
      "latitude": "33.985394",
      "longitude": "-118.177406",
      "name": "Kickoff Campaign for Bernie Sanders in Southeast Los Angeles",
      "start_day": "2015-07-29",
      "start_dt": "2015-07-29 19:00:00",
      "start_time": "19:00:00",
      "venue_zip": "90270",
      "bernieID": 103
    },
    {
      "attendee_count": 326,
      "capacity": "750",
      "id": "301",
      "id_obfuscated": "wrgw",
      "latitude": "45.489143",
      "longitude": "-122.650871",
      "name": "Watershed PDX supports Bernie!",
      "start_day": "2015-07-29",
      "start_dt": "2015-07-29 19:00:00",
      "start_time": "19:00:00",
      "venue_zip": "97202",
      "bernieID": 104
    },
    {
      "attendee_count": 32,
      "capacity": "40",
      "id": "2093",
      "id_obfuscated": "4v53z",
      "latitude": "48.085926",
      "longitude": "-123.102226",
      "name": "People for Bernie Sanders",
      "start_day": "2015-07-29",
      "start_dt": "2015-07-29 19:00:00",
      "start_time": "19:00:00",
      "venue_zip": "98382",
      "bernieID": 105
    },
    {
      "attendee_count": 20,
      "capacity": "20",
      "id": "304",
      "id_obfuscated": "wr4v",
      "latitude": "35.362549",
      "longitude": "-119.101707",
      "name": "Let's Support Bernie",
      "start_day": "2015-07-29",
      "start_dt": "2015-07-29 19:00:00",
      "start_time": "19:00:00",
      "venue_zip": "93312",
      "bernieID": 106
    },
    {
      "attendee_count": 20,
      "capacity": "20",
      "id": "1584",
      "id_obfuscated": "4jvk5",
      "latitude": "40.027977",
      "longitude": "-105.274109",
      "name": "Central Boulder #FeeltheBern Organizing Meeting",
      "start_day": "2015-07-29",
      "start_dt": "2015-07-29 20:00:00",
      "start_time": "20:00:00",
      "venue_zip": "80304",
      "bernieID": 107
    },
    {
      "attendee_count": 12,
      "capacity": "24",
      "id": "2352",
      "id_obfuscated": "4v7wf",
      "latitude": "34.083504",
      "longitude": "-118.309151",
      "name": "East Hollywood Kick Off for Bernie Expanded",
      "start_day": "2015-07-29",
      "start_dt": "2015-07-29 19:00:00",
      "start_time": "19:00:00",
      "venue_zip": "90004",
      "bernieID": 108
    },
    {
      "attendee_count": 270,
      "capacity": "330",
      "id": "2609",
      "id_obfuscated": "4v72w",
      "latitude": "37.324940",
      "longitude": "-122.041573",
      "name": "Largest gathering for Bernie in the Bay Area (Cupertino_",
      "start_day": "2015-07-29",
      "start_dt": "2015-07-29 19:00:00",
      "start_time": "19:00:00",
      "venue_zip": "95014",
      "bernieID": 109
    },
    {
      "attendee_count": 20,
      "capacity": "20",
      "id": "3121",
      "id_obfuscated": "4vxgj",
      "latitude": "47.586861",
      "longitude": "-122.135719",
      "name": "Robinswood/Bellevue Organizing for Bernie",
      "start_day": "2015-07-29",
      "start_dt": "2015-07-29 19:00:00",
      "start_time": "19:00:00",
      "venue_zip": "98007",
      "bernieID": 110
    },
    {
      "attendee_count": 40,
      "capacity": "40",
      "id": "306",
      "id_obfuscated": "wr4t",
      "latitude": "33.321705",
      "longitude": "-111.933586",
      "name": "Arizonans Feel the Bern",
      "start_day": "2015-07-29",
      "start_dt": "2015-07-29 19:00:00",
      "start_time": "19:00:00",
      "venue_zip": "85284",
      "bernieID": 111
    },
    {
      "attendee_count": 10,
      "capacity": "30",
      "id": "1074",
      "id_obfuscated": "4jvrt",
      "latitude": "38.248451",
      "longitude": "-104.674576",
      "name": "Pueblo meet up",
      "start_day": "2015-07-29",
      "start_dt": "2015-07-29 20:00:00",
      "start_time": "20:00:00",
      "venue_zip": "81005",
      "bernieID": 112
    },
    {
      "attendee_count": 20,
      "capacity": "20",
      "id": "1586",
      "id_obfuscated": "4jvkx",
      "latitude": "38.296139",
      "longitude": "-122.274483",
      "name": "NAPA-CALIFORNIA:  SUPPORT HONOURABLE BERNIE SANDERS  FOR  U.S. PRESIDENT 2016",
      "start_day": "2015-07-29",
      "start_dt": "2015-07-29 19:00:00",
      "start_time": "19:00:00",
      "venue_zip": "94559",
      "bernieID": 113
    },
    {
      "attendee_count": 10,
      "capacity": "10",
      "id": "1842",
      "id_obfuscated": "4jjvy",
      "latitude": "37.868977",
      "longitude": "-122.273895",
      "name": "Downtown Berkeley House Meeting",
      "start_day": "2015-07-29",
      "start_dt": "2015-07-29 19:00:00",
      "start_time": "19:00:00",
      "venue_zip": "94703",
      "bernieID": 114
    },
    {
      "attendee_count": 9,
      "capacity": "10",
      "id": "3634",
      "id_obfuscated": "4vx7j",
      "latitude": "45.485378",
      "longitude": "-122.726250",
      "name": "Go All the Way Bernie!",
      "start_day": "2015-07-29",
      "start_dt": "2015-07-29 19:00:00",
      "start_time": "19:00:00",
      "venue_zip": "97221",
      "bernieID": 115
    },
    {
      "attendee_count": 190,
      "capacity": "190",
      "id": "563",
      "id_obfuscated": "wj8",
      "latitude": "37.892307",
      "longitude": "-122.116165",
      "name": "Contra Costa for Bernie Sanders - Kickoff",
      "start_day": "2015-07-29",
      "start_dt": "2015-07-29 19:00:00",
      "start_time": "19:00:00",
      "venue_zip": "94549",
      "bernieID": 116
    },
    {
      "attendee_count": 96,
      "capacity": "100",
      "id": "2355",
      "id_obfuscated": "4v7wz",
      "latitude": "40.798416",
      "longitude": "-124.166298",
      "name": "Humboldt County for Bernie Sanders Organizational Meeting",
      "start_day": "2015-07-29",
      "start_dt": "2015-07-29 19:00:00",
      "start_time": "19:00:00",
      "venue_zip": "95501",
      "bernieID": 117
    },
    {
      "attendee_count": 215,
      "capacity": "250",
      "id": "821",
      "id_obfuscated": "wdq",
      "latitude": "44.565304",
      "longitude": "-123.264641",
      "name": "Corvallis We Want Bernie Meet Up",
      "start_day": "2015-07-29",
      "start_dt": "2015-07-29 19:00:00",
      "start_time": "19:00:00",
      "venue_zip": "97330",
      "bernieID": 118
    },
    {
      "attendee_count": 12,
      "capacity": "15",
      "id": "2102",
      "id_obfuscated": "4v5mv",
      "latitude": "37.701607",
      "longitude": "-122.158348",
      "name": "Bernie Sanders live video broadcast and San Leandro support Bernie Meeting",
      "start_day": "2015-07-29",
      "start_dt": "2015-07-29 19:00:00",
      "start_time": "19:00:00",
      "venue_zip": "94579",
      "bernieID": 119
    },
    {
      "attendee_count": 0,
      "capacity": "0",
      "id": "2358",
      "id_obfuscated": "4v7w9",
      "latitude": "40.516865",
      "longitude": "-107.550873",
      "name": "Craig, CO for Bernie",
      "start_day": "2015-07-29",
      "start_dt": "2015-07-29 20:00:00",
      "start_time": "20:00:00",
      "venue_zip": "81625",
      "bernieID": 120
    },
    {
      "attendee_count": 8,
      "capacity": "20",
      "id": "3382",
      "id_obfuscated": "4vx9d",
      "latitude": "47.416637",
      "longitude": "-120.350098",
      "name": "Wenatchee for Bernie Sanders kickoff event",
      "start_day": "2015-07-29",
      "start_dt": "2015-07-29 19:00:00",
      "start_time": "19:00:00",
      "venue_zip": "98801",
      "bernieID": 121
    },
    {
      "attendee_count": 60,
      "capacity": "400",
      "id": "1335",
      "id_obfuscated": "4jvss",
      "latitude": "33.697132",
      "longitude": "-84.402092",
      "name": "Atlanta Bernie Sanders Kickoff Meeting, BBQ, and Social!",
      "start_day": "2015-07-29",
      "start_dt": "2015-07-29 19:00:00",
      "start_time": "19:00:00",
      "venue_zip": "30315",
      "bernieID": 122
    },
    {
      "attendee_count": 2,
      "capacity": "25",
      "id": "2360",
      "id_obfuscated": "4v7w7",
      "latitude": "48.118896",
      "longitude": "-123.431168",
      "name": "Evening Meeup at Art Gallery/Studio Space on N. Lincoln, Port Angeles",
      "start_day": "2015-07-29",
      "start_dt": "2015-07-29 19:00:00",
      "start_time": "19:00:00",
      "venue_zip": "98362",
      "bernieID": 123
    },
    {
      "attendee_count": 3,
      "capacity": "13",
      "id": "3384",
      "id_obfuscated": "4vx9h",
      "latitude": "47.030262",
      "longitude": "-122.829407",
      "name": "Lacey Loves Bernie",
      "start_day": "2015-07-29",
      "start_dt": "2015-07-29 19:00:00",
      "start_time": "19:00:00",
      "venue_zip": "98503",
      "bernieID": 124
    },
    {
      "attendee_count": 0,
      "capacity": "8",
      "id": "2873",
      "id_obfuscated": "4v7h7",
      "latitude": "38.137489",
      "longitude": "-120.452377",
      "name": "Murphys Voters for Bernie",
      "start_day": "2015-07-29",
      "start_dt": "2015-07-29 19:00:00",
      "start_time": "19:00:00",
      "venue_zip": "95247",
      "bernieID": 125
    },
    {
      "attendee_count": 20,
      "capacity": "20",
      "id": "1082",
      "id_obfuscated": "4jvrq",
      "latitude": "32.766727",
      "longitude": "-117.106209",
      "name": "Kensington Bernie Meet-up",
      "start_day": "2015-07-29",
      "start_dt": "2015-07-29 19:00:00",
      "start_time": "19:00:00",
      "venue_zip": "92116",
      "bernieID": 126
    },
    {
      "attendee_count": 2,
      "capacity": "15",
      "id": "3131",
      "id_obfuscated": "4vxgd",
      "latitude": "39.428200",
      "longitude": "-123.803635",
      "name": "Fort Bragg CA Bernie Supporters",
      "start_day": "2015-07-29",
      "start_dt": "2015-07-29 19:00:00",
      "start_time": "19:00:00",
      "venue_zip": "95437",
      "bernieID": 127
    },
    {
      "attendee_count": 4,
      "capacity": "50",
      "id": "2876",
      "id_obfuscated": "4v7hz",
      "latitude": "41.268490",
      "longitude": "-110.967072",
      "name": "Uinta County, WY Kick-off Meeting for Bernie Sanders",
      "start_day": "2015-07-29",
      "start_dt": "2015-07-29 20:00:00",
      "start_time": "20:00:00",
      "venue_zip": "82930",
      "bernieID": 128
    },
    {
      "attendee_count": 64,
      "capacity": "0",
      "id": "1597",
      "id_obfuscated": "4jvzv",
      "latitude": "39.696648",
      "longitude": "-104.882057",
      "name": "Feel the Bern on the east end of Denver",
      "start_day": "2015-07-29",
      "start_dt": "2015-07-29 20:00:00",
      "start_time": "20:00:00",
      "venue_zip": "80247",
      "bernieID": 129
    },
    {
      "attendee_count": 6,
      "capacity": "20",
      "id": "2366",
      "id_obfuscated": "4v7wh",
      "latitude": "45.305634",
      "longitude": "-122.970497",
      "name": "Newberg For Bernie!",
      "start_day": "2015-07-29",
      "start_dt": "2015-07-29 19:00:00",
      "start_time": "19:00:00",
      "venue_zip": "97132",
      "bernieID": 130
    },
    {
      "attendee_count": 350,
      "capacity": "350",
      "id": "2622",
      "id_obfuscated": "4v72b",
      "latitude": "45.526424",
      "longitude": "-122.687775",
      "name": "Bernie Bash at the Mission Theater",
      "start_day": "2015-07-29",
      "start_dt": "2015-07-29 19:00:00",
      "start_time": "19:00:00",
      "venue_zip": "97209",
      "bernieID": 131
    },
    {
      "attendee_count": 194,
      "capacity": "225",
      "id": "575",
      "id_obfuscated": "wwr",
      "latitude": "39.219063",
      "longitude": "-121.061058",
      "name": "Nevada County for Bernie Sanders",
      "start_day": "2015-07-29",
      "start_dt": "2015-07-29 19:00:00",
      "start_time": "19:00:00",
      "venue_zip": "95945",
      "bernieID": 132
    },
    {
      "attendee_count": 8,
      "capacity": "10",
      "id": "3647",
      "id_obfuscated": "4vx7q",
      "latitude": "34.453583",
      "longitude": "-118.530029",
      "name": "SANTA CLARITA BERNIECRATS KICKOFF MEETING",
      "start_day": "2015-07-29",
      "start_dt": "2015-07-29 19:00:00",
      "start_time": "19:00:00",
      "venue_zip": "91350",
      "bernieID": 133
    },
    {
      "attendee_count": 20,
      "capacity": "20",
      "id": "832",
      "id_obfuscated": "wsw",
      "latitude": "37.423794",
      "longitude": "-121.876427",
      "name": "Milpitas Bernie Boosters (sorry, event already full)",
      "start_day": "2015-07-29",
      "start_dt": "2015-07-29 19:00:00",
      "start_time": "19:00:00",
      "venue_zip": "95035",
      "bernieID": 134
    },
    {
      "attendee_count": 39,
      "capacity": "40",
      "id": "1090",
      "id_obfuscated": "4jrhh",
      "latitude": "36.615417",
      "longitude": "-121.845390",
      "name": "Monterey Bay for Bernie Sanders",
      "start_day": "2015-07-29",
      "start_dt": "2015-07-29 19:00:00",
      "start_time": "19:00:00",
      "venue_zip": "93955",
      "bernieID": 135
    },
    {
      "attendee_count": 30,
      "capacity": "30",
      "id": "1602",
      "id_obfuscated": "4jv9m",
      "latitude": "44.031219",
      "longitude": "-121.271088",
      "name": "Bend Oregon Intro to Bernie Sanders / Knudtsons Home 7PM July 29",
      "start_day": "2015-07-29",
      "start_dt": "2015-07-29 19:00:00",
      "start_time": "19:00:00",
      "venue_zip": "97702",
      "bernieID": 136
    },
    {
      "attendee_count": 7,
      "capacity": "16",
      "id": "1858",
      "id_obfuscated": "4jv7q",
      "latitude": "47.173782",
      "longitude": "-122.939964",
      "name": "Feel the Bern in Carlyon Beach",
      "start_day": "2015-07-29",
      "start_dt": "2015-07-29 19:00:00",
      "start_time": "19:00:00",
      "venue_zip": "98502",
      "bernieID": 137
    },
    {
      "attendee_count": 5,
      "capacity": "20",
      "id": "2626",
      "id_obfuscated": "4v7sr",
      "latitude": "38.245235",
      "longitude": "-120.549095",
      "name": "Beenie Sanders support event in Mountain Ranch",
      "start_day": "2015-07-29",
      "start_dt": "2015-07-29 19:00:00",
      "start_time": "19:00:00",
      "venue_zip": "95246",
      "bernieID": 138
    },
    {
      "attendee_count": 16,
      "capacity": "16",
      "id": "1859",
      "id_obfuscated": "4jv7b",
      "latitude": "47.761593",
      "longitude": "-122.215767",
      "name": "Westhill Bernie for President Organizing Meeting",
      "start_day": "2015-07-29",
      "start_dt": "2015-07-29 19:00:00",
      "start_time": "19:00:00",
      "venue_zip": "98011",
      "bernieID": 139
    },
    {
      "attendee_count": 1,
      "capacity": "0",
      "id": "2627",
      "id_obfuscated": "4v7sv",
      "latitude": "40.819832",
      "longitude": "-115.658318",
      "name": "Spring Creek and Elko NV for Bernie Sanders",
      "start_day": "2015-07-29",
      "start_dt": "2015-07-29 19:00:00",
      "start_time": "19:00:00",
      "venue_zip": "89815",
      "bernieID": 140
    },
    {
      "attendee_count": 40,
      "capacity": "90",
      "id": "3651",
      "id_obfuscated": "4vx3t",
      "latitude": "44.044830",
      "longitude": "-123.072601",
      "name": "Lane County for Bernie Sanders - Official July 29th Organizing Meeting",
      "start_day": "2015-07-29",
      "start_dt": "2015-07-29 19:00:00",
      "start_time": "19:00:00",
      "venue_zip": "97401",
      "bernieID": 141
    },
    {
      "attendee_count": 20,
      "capacity": "20",
      "id": "1348",
      "id_obfuscated": "4jvgj",
      "latitude": "39.598129",
      "longitude": "-105.142685",
      "name": "Littleton for Bernie",
      "start_day": "2015-07-29",
      "start_dt": "2015-07-29 20:00:00",
      "start_time": "20:00:00",
      "venue_zip": "80127",
      "bernieID": 142
    },
    {
      "attendee_count": 10,
      "capacity": "10",
      "id": "2372",
      "id_obfuscated": "4v7tb",
      "latitude": "38.550751",
      "longitude": "-121.475792",
      "name": "Curtis Park Kickoff",
      "start_day": "2015-07-29",
      "start_dt": "2015-07-29 19:00:00",
      "start_time": "19:00:00",
      "venue_zip": "95818",
      "bernieID": 143
    },
    {
      "attendee_count": 15,
      "capacity": "15",
      "id": "325",
      "id_obfuscated": "wrvq",
      "latitude": "44.031990",
      "longitude": "-123.092125",
      "name": "Kickoff for Bernie!",
      "start_day": "2015-07-29",
      "start_dt": "2015-07-29 19:00:00",
      "start_time": "19:00:00",
      "venue_zip": "97405",
      "bernieID": 144
    },
    {
      "attendee_count": 15,
      "capacity": "15",
      "id": "1861",
      "id_obfuscated": "4jv7j",
      "latitude": "37.319607",
      "longitude": "-120.449501",
      "name": "Merced's Feel the Bern",
      "start_day": "2015-07-29",
      "start_dt": "2015-07-29 19:00:00",
      "start_time": "19:00:00",
      "venue_zip": "95340",
      "bernieID": 145
    },
    {
      "attendee_count": 16,
      "capacity": "16",
      "id": "3141",
      "id_obfuscated": "4vxrm",
      "latitude": "45.471554",
      "longitude": "-122.814598",
      "name": "Beaverton for Bernie",
      "start_day": "2015-07-29",
      "start_dt": "2015-07-29 19:00:00",
      "start_time": "19:00:00",
      "venue_zip": "97008",
      "bernieID": 146
    },
    {
      "attendee_count": 2,
      "capacity": "10",
      "id": "3653",
      "id_obfuscated": "4vxz3",
      "latitude": "38.518120",
      "longitude": "-107.975929",
      "name": "Montrose Meeting for Bernie",
      "start_day": "2015-07-29",
      "start_dt": "2015-07-29 20:00:00",
      "start_time": "20:00:00",
      "venue_zip": "81401",
      "bernieID": 147
    },
    {
      "attendee_count": 30,
      "capacity": "30",
      "id": "3142",
      "id_obfuscated": "4vxrh",
      "latitude": "47.495499",
      "longitude": "-122.547035",
      "name": "Kitsap County for Bernie Sanders",
      "start_day": "2015-07-29",
      "start_dt": "2015-07-29 19:00:00",
      "start_time": "19:00:00",
      "venue_zip": "98367",
      "bernieID": 148
    },
    {
      "attendee_count": 11,
      "capacity": "12",
      "id": "3655",
      "id_obfuscated": "4vxzh",
      "latitude": "45.482452",
      "longitude": "-122.822922",
      "name": "Beaverton Westbrook Get to know Bernie",
      "start_day": "2015-07-29",
      "start_dt": "2015-07-29 19:00:00",
      "start_time": "19:00:00",
      "venue_zip": "97005",
      "bernieID": 149
    },
    {
      "attendee_count": 25,
      "capacity": "24",
      "id": "3144",
      "id_obfuscated": "4vxvg",
      "latitude": "33.547306",
      "longitude": "-117.670975",
      "name": "Mission Viejo #feelthebern",
      "start_day": "2015-07-29",
      "start_dt": "2015-07-29 19:00:00",
      "start_time": "19:00:00",
      "venue_zip": "92692",
      "bernieID": 150
    },
    {
      "attendee_count": 10,
      "capacity": "10",
      "id": "329",
      "id_obfuscated": "wrvy",
      "latitude": "34.462605",
      "longitude": "-117.249466",
      "name": "Feel The Bern",
      "start_day": "2015-07-29",
      "start_dt": "2015-07-29 19:00:00",
      "start_time": "19:00:00",
      "venue_zip": "92308",
      "bernieID": 151
    },
    {
      "attendee_count": 10,
      "capacity": "20",
      "id": "1867",
      "id_obfuscated": "4jv7f",
      "latitude": "21.479279",
      "longitude": "-158.224976",
      "name": "Bernie's da Bom",
      "start_day": "2015-07-29",
      "start_dt": "2015-07-29 16:00:00",
      "start_time": "16:00:00",
      "venue_zip": "96792",
      "bernieID": 152
    },
    {
      "attendee_count": 10,
      "capacity": "30",
      "id": "3147",
      "id_obfuscated": "4vxvb",
      "latitude": "37.485142",
      "longitude": "-122.446571",
      "name": "Bernie on the Coast",
      "start_day": "2015-07-29",
      "start_dt": "2015-07-29 19:00:00",
      "start_time": "19:00:00",
      "venue_zip": "94019",
      "bernieID": 153
    },
    {
      "attendee_count": 1,
      "capacity": "20",
      "id": "2892",
      "id_obfuscated": "4v7k8",
      "latitude": "39.738995",
      "longitude": "-105.028023",
      "name": "Organizing meeting for Bernie sanders",
      "start_day": "2015-07-29",
      "start_dt": "2015-07-29 20:00:00",
      "start_time": "20:00:00",
      "venue_zip": "80204",
      "bernieID": 154
    },
    {
      "attendee_count": 102,
      "capacity": "0",
      "id": "590",
      "id_obfuscated": "wrr",
      "latitude": "37.730415",
      "longitude": "-122.384422",
      "name": "McLaren Park/ Jerry Garcia Amphitheater/ Southeastern quadrant patriots",
      "start_day": "2015-07-29",
      "start_dt": "2015-07-29 19:00:00",
      "start_time": "19:00:00",
      "venue_zip": "94124",
      "bernieID": 155
    },
    {
      "attendee_count": 15,
      "capacity": "100",
      "id": "335",
      "id_obfuscated": "wrv2",
      "latitude": "34.035770",
      "longitude": "-118.233475",
      "name": "Arts District DTLA Creatives Jamming for Sanders 2016",
      "start_day": "2015-07-29",
      "start_dt": "2015-07-29 19:00:00",
      "start_time": "19:00:00",
      "venue_zip": "90021",
      "bernieID": 156
    },
    {
      "attendee_count": 4,
      "capacity": "30",
      "id": "3407",
      "id_obfuscated": "4vxpc",
      "latitude": "40.758900",
      "longitude": "-111.571442",
      "name": "Bernie 2016 - the only hope for democracy",
      "start_day": "2015-07-29",
      "start_dt": "2015-07-29 20:00:00",
      "start_time": "20:00:00",
      "venue_zip": "84098",
      "bernieID": 157
    },
    {
      "attendee_count": 30,
      "capacity": "0",
      "id": "2384",
      "id_obfuscated": "4v7rv",
      "latitude": "21.966045",
      "longitude": "-159.387466",
      "name": "Kauai for Bernie Organizing Meeting at 4 p.m. Hawaii Time",
      "start_day": "2015-07-29",
      "start_dt": "2015-07-29 16:00:00",
      "start_time": "16:00:00",
      "venue_zip": "96766",
      "bernieID": 158
    },
    {
      "attendee_count": 26,
      "capacity": "50",
      "id": "849",
      "id_obfuscated": "wb8",
      "latitude": "61.209698",
      "longitude": "-149.874908",
      "name": "Anchorage for Bernie Kickoff Meeting",
      "start_day": "2015-07-29",
      "start_dt": "2015-07-29 18:00:00",
      "start_time": "18:00:00",
      "venue_zip": "99501",
      "bernieID": 159
    },
    {
      "attendee_count": 60,
      "capacity": "60",
      "id": "1617",
      "id_obfuscated": "4jv8s",
      "latitude": "47.264343",
      "longitude": "-122.464844",
      "name": "North Side 4 Sanders",
      "start_day": "2015-07-29",
      "start_dt": "2015-07-29 19:00:00",
      "start_time": "19:00:00",
      "venue_zip": "98403",
      "bernieID": 160
    },
    {
      "attendee_count": 0,
      "capacity": "15",
      "id": "3409",
      "id_obfuscated": "4vxyr",
      "latitude": "60.496754",
      "longitude": "-151.075485",
      "name": "Kick off for Bernie Sanders On July 29th Soldotna, Alaska",
      "start_day": "2015-07-29",
      "start_dt": "2015-07-29 18:00:00",
      "start_time": "18:00:00",
      "venue_zip": "99669",
      "bernieID": 161
    },
    {
      "attendee_count": 5,
      "capacity": "5",
      "id": "2898",
      "id_obfuscated": "4v7zj",
      "latitude": "37.974648",
      "longitude": "-122.561646",
      "name": "Bernie is the real deal",
      "start_day": "2015-07-29",
      "start_dt": "2015-07-29 19:00:00",
      "start_time": "19:00:00",
      "venue_zip": "94960",
      "bernieID": 162
    },
    {
      "attendee_count": 14,
      "capacity": "30",
      "id": "3410",
      "id_obfuscated": "4vxyv",
      "latitude": "47.617020",
      "longitude": "-122.132416",
      "name": "Crossroads organizing for Bernie",
      "start_day": "2015-07-29",
      "start_dt": "2015-07-29 19:00:00",
      "start_time": "19:00:00",
      "venue_zip": "98008",
      "bernieID": 163
    },
    {
      "attendee_count": 26,
      "capacity": "30",
      "id": "1107",
      "id_obfuscated": "4jr5d",
      "latitude": "45.406422",
      "longitude": "-122.672279",
      "name": "Lake Oswego Progressives for Bernie Sanders!",
      "start_day": "2015-07-29",
      "start_dt": "2015-07-29 19:00:00",
      "start_time": "19:00:00",
      "venue_zip": "97034",
      "bernieID": 164
    },
    {
      "attendee_count": 15,
      "capacity": "15",
      "id": "596",
      "id_obfuscated": "wtg",
      "latitude": "33.536373",
      "longitude": "-112.214264",
      "name": "West Valley Bernie Organizing Meeting",
      "start_day": "2015-07-29",
      "start_dt": "2015-07-29 19:00:00",
      "start_time": "19:00:00",
      "venue_zip": "85303",
      "bernieID": 165
    },
    {
      "attendee_count": 15,
      "capacity": "15",
      "id": "852",
      "id_obfuscated": "wbk",
      "latitude": "34.226532",
      "longitude": "-118.261185",
      "name": "La Crescenta Meet-up to Support Bernie Sanders",
      "start_day": "2015-07-29",
      "start_dt": "2015-07-29 19:00:00",
      "start_time": "19:00:00",
      "venue_zip": "91214",
      "bernieID": 166
    },
    {
      "attendee_count": 129,
      "capacity": "0",
      "id": "1108",
      "id_obfuscated": "4jr5g",
      "latitude": "34.198917",
      "longitude": "-118.230751",
      "name": "Glendale's Meetup for Bernie's National Event",
      "start_day": "2015-07-29",
      "start_dt": "2015-07-29 19:00:00",
      "start_time": "19:00:00",
      "venue_zip": "91208",
      "bernieID": 167
    },
    {
      "attendee_count": 50,
      "capacity": "50",
      "id": "598",
      "id_obfuscated": "wtw",
      "latitude": "47.660797",
      "longitude": "-122.327271",
      "name": "Wallingford for Bernie Sanders",
      "start_day": "2015-07-29",
      "start_dt": "2015-07-29 19:00:00",
      "start_time": "19:00:00",
      "venue_zip": "98103",
      "bernieID": 168
    },
    {
      "attendee_count": 30,
      "capacity": "0",
      "id": "343",
      "id_obfuscated": "wrrf",
      "latitude": "32.859955",
      "longitude": "-117.238411",
      "name": "Standing Up with Bernie",
      "start_day": "2015-07-29",
      "start_dt": "2015-07-29 19:00:00",
      "start_time": "19:00:00",
      "venue_zip": "92037",
      "bernieID": 169
    },
    {
      "attendee_count": 20,
      "capacity": "20",
      "id": "855",
      "id_obfuscated": "wbc",
      "latitude": "32.333134",
      "longitude": "-110.959587",
      "name": "Kickoff for Bernie Sanders in Tucson",
      "start_day": "2015-07-29",
      "start_dt": "2015-07-29 19:00:00",
      "start_time": "19:00:00",
      "venue_zip": "85718",
      "bernieID": 170
    },
    {
      "attendee_count": 10,
      "capacity": "10",
      "id": "1367",
      "id_obfuscated": "4jvgm",
      "latitude": "38.552422",
      "longitude": "-122.809258",
      "name": "Join John & Joan in Windsor",
      "start_day": "2015-07-29",
      "start_dt": "2015-07-29 19:00:00",
      "start_time": "19:00:00",
      "venue_zip": "95492",
      "bernieID": 171
    },
    {
      "attendee_count": 8,
      "capacity": "18",
      "id": "1882",
      "id_obfuscated": "4jvx4",
      "latitude": "37.732105",
      "longitude": "-122.455055",
      "name": "Towards a truer democracy",
      "start_day": "2015-07-29",
      "start_dt": "2015-07-29 19:00:00",
      "start_time": "19:00:00",
      "venue_zip": "94127",
      "bernieID": 172
    },
    {
      "attendee_count": 7,
      "capacity": "30",
      "id": "859",
      "id_obfuscated": "wbm",
      "latitude": "59.220161",
      "longitude": "-135.454544",
      "name": "Haines organizing meeting for Presidential Candidate Bernie Sanders",
      "start_day": "2015-07-29",
      "start_dt": "2015-07-29 18:00:00",
      "start_time": "18:00:00",
      "venue_zip": "99827",
      "bernieID": 173
    },
    {
      "attendee_count": 31,
      "capacity": "35",
      "id": "1115",
      "id_obfuscated": "4jr53",
      "latitude": "47.559303",
      "longitude": "-122.384239",
      "name": "West Seattle for Bernie Sanders",
      "start_day": "2015-07-29",
      "start_dt": "2015-07-29 19:00:00",
      "start_time": "19:00:00",
      "venue_zip": "98116",
      "bernieID": 174
    },
    {
      "attendee_count": 182,
      "capacity": "0",
      "id": "1883",
      "id_obfuscated": "4jvxg",
      "latitude": "36.008591",
      "longitude": "-115.116051",
      "name": "Nachos With Bernie",
      "start_day": "2015-07-29",
      "start_dt": "2015-07-29 19:00:00",
      "start_time": "19:00:00",
      "venue_zip": "89183",
      "bernieID": 175
    },
    {
      "attendee_count": 12,
      "capacity": "12",
      "id": "605",
      "id_obfuscated": "wt9",
      "latitude": "33.382988",
      "longitude": "-112.108391",
      "name": "Bernie Sanders Organizing Meeting",
      "start_day": "2015-07-29",
      "start_dt": "2015-07-29 19:00:00",
      "start_time": "19:00:00",
      "venue_zip": "85041",
      "bernieID": 176
    },
    {
      "attendee_count": 66,
      "capacity": "75",
      "id": "350",
      "id_obfuscated": "wrr5",
      "latitude": "47.281452",
      "longitude": "-122.490097",
      "name": "Begin the Bern",
      "start_day": "2015-07-29",
      "start_dt": "2015-07-29 19:00:00",
      "start_time": "19:00:00",
      "venue_zip": "98407",
      "bernieID": 177
    },
    {
      "attendee_count": 45,
      "capacity": "45",
      "id": "606",
      "id_obfuscated": "wty",
      "latitude": "47.539642",
      "longitude": "-122.357239",
      "name": "Organize Puget Ridge for Bernie Sanders",
      "start_day": "2015-07-29",
      "start_dt": "2015-07-29 19:00:00",
      "start_time": "19:00:00",
      "venue_zip": "98106",
      "bernieID": 178
    },
    {
      "attendee_count": 20,
      "capacity": "25",
      "id": "3678",
      "id_obfuscated": "4vx3k",
      "latitude": "45.571766",
      "longitude": "-122.657684",
      "name": "PDX FOR BERNIE",
      "start_day": "2015-07-29",
      "start_dt": "2015-07-29 19:00:00",
      "start_time": "19:00:00",
      "venue_zip": "97211",
      "bernieID": 179
    },
    {
      "attendee_count": 30,
      "capacity": "30",
      "id": "607",
      "id_obfuscated": "wtd",
      "latitude": "33.037277",
      "longitude": "-117.252609",
      "name": "North San Diego County Alliance for Bernie Sanders",
      "start_day": "2015-07-29",
      "start_dt": "2015-07-29 19:00:00",
      "start_time": "19:00:00",
      "venue_zip": "92024",
      "bernieID": 180
    },
    {
      "attendee_count": 17,
      "capacity": "0",
      "id": "1887",
      "id_obfuscated": "4jvxv",
      "latitude": "44.150654",
      "longitude": "-88.710312",
      "name": "Winneconne, Neenah, Menasha, Oshkosh Bernie Sanders supporters enjoy sunset",
      "start_day": "2015-07-29",
      "start_dt": "2015-07-29 21:00:00",
      "start_time": "21:00:00",
      "venue_zip": "54986",
      "bernieID": 181
    },
    {
      "attendee_count": 111,
      "capacity": "0",
      "id": "2399",
      "id_obfuscated": "4v7rb",
      "latitude": "34.048931",
      "longitude": "-118.327553",
      "name": "Better With Bernie 2016",
      "start_day": "2015-07-29",
      "start_dt": "2015-07-29 19:00:00",
      "start_time": "19:00:00",
      "venue_zip": "90019",
      "bernieID": 182
    },
    {
      "attendee_count": 10,
      "capacity": "10",
      "id": "1889",
      "id_obfuscated": "4jvxy",
      "latitude": "32.741501",
      "longitude": "-117.121803",
      "name": "Bernie for President Meeting North Park",
      "start_day": "2015-07-29",
      "start_dt": "2015-07-29 19:00:00",
      "start_time": "19:00:00",
      "venue_zip": "92104",
      "bernieID": 183
    },
    {
      "attendee_count": 12,
      "capacity": "12",
      "id": "866",
      "id_obfuscated": "wpl",
      "latitude": "38.565655",
      "longitude": "-121.759346",
      "name": "Davisites for Bernie Meeting",
      "start_day": "2015-07-29",
      "start_dt": "2015-07-29 19:00:00",
      "start_time": "19:00:00",
      "venue_zip": "95616",
      "bernieID": 184
    },
    {
      "attendee_count": 90,
      "capacity": "150",
      "id": "2146",
      "id_obfuscated": "4v5kl",
      "latitude": "47.304642",
      "longitude": "-122.231049",
      "name": "Auburn Area Bernie Sanders for President Kick Off",
      "start_day": "2015-07-29",
      "start_dt": "2015-07-29 19:00:00",
      "start_time": "19:00:00",
      "venue_zip": "98001",
      "bernieID": 185
    },
    {
      "attendee_count": 13,
      "capacity": "300",
      "id": "3170",
      "id_obfuscated": "4vxj4",
      "latitude": "42.176331",
      "longitude": "-122.671524",
      "name": "Ashland for Bernie",
      "start_day": "2015-07-29",
      "start_dt": "2015-07-29 19:00:00",
      "start_time": "19:00:00",
      "venue_zip": "97520",
      "bernieID": 186
    },
    {
      "attendee_count": 3,
      "capacity": "10",
      "id": "3682",
      "id_obfuscated": "4vxmw",
      "latitude": "33.867184",
      "longitude": "-118.402153",
      "name": "Hermosa Beach - Feel the Bern",
      "start_day": "2015-07-29",
      "start_dt": "2015-07-29 19:00:00",
      "start_time": "19:00:00",
      "venue_zip": "90254",
      "bernieID": 187
    },
    {
      "attendee_count": 65,
      "capacity": "65",
      "id": "2915",
      "id_obfuscated": "4v7zz",
      "latitude": "47.665600",
      "longitude": "-122.300613",
      "name": "Bernie and Fresh-Baked Chocolate Chip Cookies next to U-Village",
      "start_day": "2015-07-29",
      "start_dt": "2015-07-29 19:00:00",
      "start_time": "19:00:00",
      "venue_zip": "98105",
      "bernieID": 188
    },
    {
      "attendee_count": 161,
      "capacity": "0",
      "id": "612",
      "id_obfuscated": "wvt",
      "latitude": "34.595570",
      "longitude": "-120.140511",
      "name": "Santa Barbara Bernie Sanders Organizing Meeting",
      "start_day": "2015-07-29",
      "start_dt": "2015-07-29 19:00:00",
      "start_time": "19:00:00",
      "venue_zip": "93117",
      "bernieID": 189
    },
    {
      "attendee_count": 15,
      "capacity": "15",
      "id": "1892",
      "id_obfuscated": "4jvxl",
      "latitude": "45.549911",
      "longitude": "-122.669052",
      "name": "NE Portland for Bernie Sanders",
      "start_day": "2015-07-29",
      "start_dt": "2015-07-29 19:00:00",
      "start_time": "19:00:00",
      "venue_zip": "97227",
      "bernieID": 190
    },
    {
      "attendee_count": 52,
      "capacity": "0",
      "id": "2916",
      "id_obfuscated": "4v7zd",
      "latitude": "32.698570",
      "longitude": "-117.140152",
      "name": "San Diego Prepares to #FeeltheBern",
      "start_day": "2015-07-29",
      "start_dt": "2015-07-29 19:00:00",
      "start_time": "19:00:00",
      "venue_zip": "92113",
      "bernieID": 191
    },
    {
      "attendee_count": 22,
      "capacity": "70",
      "id": "3428",
      "id_obfuscated": "4vxyy",
      "latitude": "44.938492",
      "longitude": "-123.039551",
      "name": "Downtown Salem Bernie Sanders Organizing Meeting",
      "start_day": "2015-07-29",
      "start_dt": "2015-07-29 19:00:00",
      "start_time": "19:00:00",
      "venue_zip": "97301",
      "bernieID": 192
    },
    {
      "attendee_count": 0,
      "capacity": "15",
      "id": "615",
      "id_obfuscated": "wrx",
      "latitude": "37.803150",
      "longitude": "-122.240334",
      "name": "Cleveland Heights for Bernie Organizing Meeting",
      "start_day": "2015-07-29",
      "start_dt": "2015-07-29 19:00:00",
      "start_time": "19:00:00",
      "venue_zip": "94606",
      "bernieID": 193
    },
    {
      "attendee_count": 9,
      "capacity": "20",
      "id": "3175",
      "id_obfuscated": "4vxjv",
      "latitude": "37.770042",
      "longitude": "-122.446411",
      "name": "Queers for Bernie - San Francisco",
      "start_day": "2015-07-29",
      "start_dt": "2015-07-29 19:00:00",
      "start_time": "19:00:00",
      "venue_zip": "94117",
      "bernieID": 194
    },
    {
      "attendee_count": 20,
      "capacity": "21",
      "id": "2666",
      "id_obfuscated": "4v7p2",
      "latitude": "38.114044",
      "longitude": "-122.234741",
      "name": "Bernie Sanders for President organizing meeting in Vallejo",
      "start_day": "2015-07-29",
      "start_dt": "2015-07-29 19:00:00",
      "start_time": "19:00:00",
      "venue_zip": "94590",
      "bernieID": 195
    },
    {
      "attendee_count": 45,
      "capacity": "100",
      "id": "2922",
      "id_obfuscated": "4v73t",
      "latitude": "34.085285",
      "longitude": "-117.960899",
      "name": "Bernie 2016 kickoff in Baldwin Park",
      "start_day": "2015-07-29",
      "start_dt": "2015-07-29 19:00:00",
      "start_time": "19:00:00",
      "venue_zip": "91706",
      "bernieID": 196
    },
    {
      "attendee_count": 31,
      "capacity": "45",
      "id": "875",
      "id_obfuscated": "wp8",
      "latitude": "33.945213",
      "longitude": "-117.372810",
      "name": "Bernie Sanders ...Go Riverside!",
      "start_day": "2015-07-29",
      "start_dt": "2015-07-29 19:00:00",
      "start_time": "19:00:00",
      "venue_zip": "92506",
      "bernieID": 197
    },
    {
      "attendee_count": 130,
      "capacity": "130",
      "id": "2155",
      "id_obfuscated": "4v5k8",
      "latitude": "47.666267",
      "longitude": "-117.433372",
      "name": "Toad Hall Rally for Bernie in Spokane",
      "start_day": "2015-07-29",
      "start_dt": "2015-07-29 19:00:00",
      "start_time": "19:00:00",
      "venue_zip": "99201",
      "bernieID": 198
    },
    {
      "attendee_count": 31,
      "capacity": "50",
      "id": "1900",
      "id_obfuscated": "4jvx9",
      "latitude": "48.289536",
      "longitude": "-122.635857",
      "name": "Oak Harbor Bernie Sanders",
      "start_day": "2015-07-29",
      "start_dt": "2015-07-29 19:00:00",
      "start_time": "19:00:00",
      "venue_zip": "98277",
      "bernieID": 199
    },
    {
      "attendee_count": 8,
      "capacity": "0",
      "id": "2412",
      "id_obfuscated": "4v7rm",
      "latitude": "36.217842",
      "longitude": "-116.080376",
      "name": "Nye County for Bernie Sanders",
      "start_day": "2015-07-29",
      "start_dt": "2015-07-29 19:00:00",
      "start_time": "19:00:00",
      "venue_zip": "89048",
      "bernieID": 200
    }
  ]
}